Time,GPS Speed,GPS Nsat,GPS LatAcc,GPS LonAcc,GPS Slope,GPS Heading,GPS Gyro,GPS Altitude,GPS PosAccuracy,GPS SpdAccuracy,GPS Radius,GPS Latitude,GPS Longitude,External Voltage,Rear Roll,Rear Heave,Front Heave,Front Roll,InlineAcc,VerticalAcc,RollRate,PitchRate,YawRate,GPS LateralAcc,GPS InlineAcc,GPS Yaw Rate,D4 Gate Driver B,D4 RTD3 Temperat,D3 RTD2 Temperat,D2 RTD1 Temperat,D1 Control Board,D4 Torque Shudde,D3 Motor Tempera,D2 RTD5 Temperat,D1 RTD4 Temperat,D4 Delta Resolve,D3 Electrical Ou,D2 Motor Speed,D1 Motor Angle E,D4 DC Bus Curren,D1 Phase A Curre,D3 Phase C Curre,D2 Phase B Curre,D4 VBC Vq Voltag,D3 VAB Vd Voltag,D2 Output Voltag,D1 DC Bus Voltag,D4 Iq,D3 Id,D2 Flux Feedback,D1 Flux Command,D4 Reference Vol,D3 Reference Vol,D2 Reference Vol,D1 Reference Vol,D7 Direction Com,D6 Inverter Enab,D3 Relay 1 Statu,D3 Relay 3 Statu,D3 Relay 4 Statu,D5 Inverter Comm,D3 Relay 2 Statu,D4 Inverter Run,D2 Inverter Stat,D1 VSM State,D6 Inverter E 01,D4 Inverter Disc,D3 Relay 5 Statu,D6 Start Mode Ac,D3 Relay 6 Statu,D7 BMS Active,D7 BMS Torque Li,D7 Max Speed Lim,D7 Low Speed Lim,D5 Rolling Count,D1 PWM Frequency,D4 Run Fault Hi,D2 Post Fault Hi,D3 Run Fault Lo,D1 Post Fault Lo,D3 Power On Time,D1 Commanded Tor,D2 Torque Feedba,D4 Iq Command,Fast Torque Comm,Fast Torque Feed,Fast Motor Speed,Fast DC Bus Volt,Speed Mode Enabl,Speed Command,Torque Command,Torque Limit Com,D3 Data Command,D1 Parameter  01,SEG1OV,SEG1UV,PEC ERROR,SEG1OT,SEG1UT,SEG2OV,SEG2UT,SEG2OT,SEG2UV,SEG3OV,SEG3UV,SEG3OT,SEG3UT,SEG4OV,SEG4UV,SEG4OT,SEG4UT,SEG5OV,SEG5UV,SEG5OT,SEG5UT,SEG6OV,SEG6UV,SEG6OT,SEG6UT,PACKOC,IMD Fault,D1 HV Input Curr,D2 14V Master Fa,D3 HV Input Curr,D4 DTC Status,D6 14V Monitor,D8 14V Current M,BrakeSensor1,BrakeSensor2,Temperature,APPS1,APPS2,Max Voltage,Min Voltage,Max Voltage Location,Avg Voltage,Min Voltage Location,Max Temperature,Min Temperature Location,Min Temperature,Avg Temperature,Max Temperature Location,Pack Voltage,Pack Current
0,0.2621,15,0,0,-6.3799,178.9343,0,329.5265,23.7,0.18,10000,40.86296523,-77.83393779,10.472,12.9219,31.9844,34.8438,0.0564,0.1011,-1.0039,-0.1392,-0.2096,-0.5308,0,0,0,34.8,-1000,206.3,204.9,33.6,0,39,-1000,-1000,131.8,0,1,226.6,0,-1,-0.5,-0.4,0.8,0.2,0,390.1,0,0,0,0,0,0,0,0,0,0,0,0,0,0,0,0,0,0,0,0,0,0,0,0,0,0,0,0,0,0,0,0,0,104.853,0,0.7,0,0,0,0,0,0,0,0,0,0,0,0,0,0,0,0,0,0,0,0,0,0,0,0,0,0,0,0,0,0,0,0,0,0,0,0,0,0,0,0,0,0,0,0,24.8831,28.0409,42,-0.63,-0.66,4.0722,4.0647,65,4.0676,37,29.78,56,25.43,16.62,26,70.66,0
0.05,0.2621,15,0,0,-6.3799,178.9343,0,329.5265,23.7,0.18,10000,40.86296523,-77.83393779,10.472,12.9219,31.9844,34.8438,0.0564,0.0954,-1.0063,-0.1392,-0.2096,-0.5308,0,0,0,34.8,-1000,206.3,204.9,33.6,0,39,-1000,-1000,131.8,0,1,226.6,0,-1,-0.5,-0.4,0.8,0.2,0,390.1,0,0,0,0,0,0,0,0,0,0,0,0,0,0,0,0,0,0,0,0,0,0,0,0,0,0,0,0,0,0,0,0,0,104.853,0,0.7,0,0,0,0,0,0,0,0,0,0,0,0,0,0,0,0,0,0,0,0,0,0,0,0,0,0,0,0,0,0,0,0,0,0,0,0,0,0,0,0,0,0,0,0,24.8831,28.0409,42,-0.63,-0.66,4.0722,4.0647,65,4.0676,37,29.78,56,25.43,16.62,26,70.66,0
0.1,0.2621,15,0,0,-6.3799,178.9343,0,329.5265,23.7,0.18,10000,40.86296523,-77.83393779,10.472,12.9219,31.9844,34.8438,0.0564,0.0965,-1.0088,-0.1392,-0.2096,-0.5308,0,0,0,34.8,-1000,206.3,204.9,33.6,0,39,-1000,-1000,131.8,0,1,226.6,0,-1,-0.5,-0.4,0.8,0.2,0,390.1,0,0,0,0,0,0,0,0,0,0,0,0,0,0,0,0,0,0,0,0,0,0,0,0,0,0,0,0,0,0,0,0,0,104.853,0,0.7,0,0,0,0,0,0,0,0,0,0,0,0,0,0,0,0,0,0,0,0,0,0,0,0,0,0,0,0,0,0,0,0,0,0,0,0,0,0,0,0,0,0,0,0,24.8831,28.0409,42,-0.63,-0.66,4.0722,4.0647,65,4.0676,37,29.78,56,25.43,16.62,26,70.66,0
0.15,0.2621,15,0,0,-6.3799,178.9343,0,329.5265,23.7,0.18,10000,40.86296523,-77.83393779,10.472,12.9219,31.9844,34.8438,0.0564,0.0973,-1.0039,-0.1392,-0.2096,-0.5308,0,0,0,34.8,-1000,206.3,204.9,33.6,0,39,-1000,-1000,131.8,0,1,226.6,0,-1,-0.5,-0.4,0.8,0.2,0,390.1,0,0,0,0,0,0,0,0,0,0,0,0,0,0,0,0,0,0,0,0,0,0,0,0,0,0,0,0,0,0,0,0,0,104.853,0,0.7,0,0,0,0,0,0,0,0,0,0,0,0,0,0,0,0,0,0,0,0,0,0,0,0,0,0,0,0,0,0,0,0,0,0,0,0,0,0,0,0,0,0,0,0,24.8831,28.0409,42,-0.63,-0.66,4.0722,4.0647,65,4.0676,37,29.78,56,25.43,16.62,26,70.66,0
0.2,0.2621,15,0,0,-6.3799,178.9343,0,329.5265,23.7,0.18,10000,40.86296523,-77.83393779,10.472,12.9219,31.9844,34.8438,0.0564,0.1022,-0.9995,-0.1392,-0.2096,-0.5308,0,0,0,34.8,-1000,206.3,204.9,33.6,0,39,-1000,-1000,131.8,0,1,226.6,0,-1,-0.5,-0.4,0.8,0.2,0,390.1,0,0,0,0,0,0,0,0,0,0,0,0,0,0,0,0,0,0,0,0,0,0,0,0,0,0,0,0,0,0,0,0,0,104.853,0,0.7,0,0,0,0,0,0,0,0,0,0,0,0,0,0,0,0,0,0,0,0,0,0,0,0,0,0,0,0,0,0,0,0,0,0,0,0,0,0,0,0,0,0,0,0,24.8831,28.0409,42,-0.63,-0.66,4.0722,4.0647,65,4.0676,37,29.78,56,25.43,16.62,26,70.66,0
0.25,0.2621,15,0,0,-6.3799,178.9343,0,329.5265,23.7,0.18,10000,40.86296523,-77.83393779,10.472,12.9219,31.9844,34.8438,0.0564,0.1099,-1.0044,-0.1346,-0.2745,-0.5303,0,0,0,34.8,-1000,206.3,204.9,33.6,0,39,-1000,-1000,131.8,0,1,226.6,0,-1,-0.5,-0.4,0.8,0.2,0,390.1,0,0,0,0,0,0,0,0,0,0,0,0,0,0,0,0,0,0,0,0,0,0,0,0,0,0,0,0,0,0,0,0,0,104.853,0,0.7,0,0,0,0,0,0,0,0,0,0,0,0,0,0,0,0,0,0,0,0,0,0,0,0,0,0,0,0,0,0,0,0,0,0,0,0,0,0,0,0,0,0,0,0,24.8831,28.0409,42,-0.63,-0.66,4.0722,4.0647,65,4.0676,37,29.78,56,25.43,16.62,26,70.66,0
0.3,0.2012,15,0,0,-12.4343,111.2842,0,329.5311,23.665,0.1765,10000,40.86296528,-77.83393779,10.472,12.925,31.9781,34.8438,0.052,0.1126,-1.0078,-0.0975,-0.2448,-0.5623,0,0,0,34.7922,-1000,206.3,204.9,33.6,0,38.9735,-1000,-1000,131.8,0,1,226.6,0,-1,-0.5,-0.4,0.8,0.2,0,390.1,0,0,0,0,0,0,0,0,0,0,0,0,0,0,0,0,0,0,0,0,0,0,0,0,0,0,0,0,0,0,0,0,0,104.853,0,0.7,0,0,0,0,0,0,0,0,0,0,0,0,0,0,0,0,0,0,0,0,0,0,0,0,0,0,0,0,0,0,0,0,0,0,0,0,0,0,0,0,0,0,0,0,24.8831,28.0409,42,-0.63,-0.66,4.0722,4.0647,65,4.0676,37,29.78,56,25.43,16.62,26,70.66,0
0.35,0.1143,15,0,0,-21.0834,14.6412,0,329.5376,23.615,0.1715,10000,40.86296534,-77.83393779,10.472,12.9422,31.95,34.825,0.0496,0.108,-1.0063,-0.0924,-0.1988,-0.5292,0,0,0,34.7431,-1000,206.3,204.9,33.6,0,38.8265,-1000,-1000,131.8,0,1,226.6,0,-1,-0.5,-0.4,0.8,0.2,0,390.1,0,0,0,0,0,0,0,0,0,0,0,0,0,0,0,0,0,0,0,0,0,0,0,0,0,0,0,0,0,0,0,0,0,104.853,0,0.7,0,0,0,0,0,0,0,0,0,0,0,0,0,0,0,0,0,0,0,0,0,0,0,0,0,0,0,0,0,0,0,0,0,0,0,0,0,0,0,0,0,0,0,0,24.8831,28.0409,42,-0.63,-0.66,4.0722,4.0647,65,4.0676,37,29.78,56,25.43,16.62,26,70.66,0
0.4,0.1045,15,0,0,-21.0802,-50.9594,0,329.5413,23.6,0.1735,10000,40.86296539,-77.83393783,10.472,12.9234,31.9969,34.8438,0.0527,0.0986,-1.0039,-0.1198,-0.1912,-0.505,0,0,0,34.706,-1000,206.3,204.9,33.6,0,38.7,-1000,-1000,131.6875,0,0.7188,227.7812,0,-1.0281,-0.6406,-0.4844,0.6031,0.3406,0,390.0438,0,0,0,0,0,0,0,0,0,0,0,0,0,0,0,0,0,0,0,0,0,0,0,0,0,0,0,0,0,0,0,0,0,104.8807,0,0.7577,0,0,0,0,0,0,0,0,0,0,0,0,0,0,0,0,0,0,0,0,0,0,0,0,0,0,0,0,0,0,0,0,0,0,0,0,0,0,0,0,0,0,0,0,25.4783,28.6633,42,-0.63,-0.66,4.0722,4.0647,65,4.0676,37,29.78,56,25.43,16.62,26,70.66,0
0.45,0.1277,15,0,0,-17.3688,-103.2562,0,329.5438,23.6,0.1785,10000,40.86296543,-77.83393789,10.472,12.9094,31.975,34.8375,0.0401,0.0934,-1.0039,-0.1275,-0.2236,-0.5611,0,0,0,34.756,-1000,206.3,204.9,33.6,0,38.7,-1000,-1000,131.4792,0,0.1979,229.9688,0,-1.0802,-0.901,-0.6406,0.2385,0.601,0,389.9396,0,0,0,0,0,0,0,0,0,0,0,0,0,0,0,0,0,0,0,0,0,0,0,0,0,0,0,0,0,0,0,0,0,104.9302,0,0.8608,0,0,0,0,0,0,0,0,0,0,0,0,0,0,0,0,0,0,0,0,0,0,0,0,0,0,0,0,0,0,0,0,0,0,0,0,0,0,0,0,0,0,0,0,26.6685,29.9079,42,-0.63,-0.66,4.0722,4.0647,65,4.0676,37,29.78,56,25.43,16.62,26,70.66,0
0.5,0.133,15,0,0,-15.679,-73.6603,0,329.5497,23.565,0.1835,10000,40.86296549,-77.83393786,10.472,12.9219,31.9906,34.8312,0.0337,0.099,-1.0039,-0.1399,-0.2156,-0.5519,0,0,0,34.8,-1000,206.3,204.9,33.6,0,38.7,-1000,-1000,131.174,0,0,230.3479,0,-0.9062,-0.9031,-0.7969,0.1646,0.5385,0,389.9,0,0,0,0,0,0,0,0,0,0,0,0,0,0,0,0,0,0,0,0,0,0,0,0,0,0,0,0,0,0,0,0,0,104.9803,0,0.8347,0,0,0,0,0,0,0,0,0,0,0,0,0,0,0,0,0,0,0,0,0,0,0,0,0,0,0,0,0,0,0,0,0,0,0,0,0,0,0,0,0,0,0,0,27.5238,30.8023,42,-0.64,-0.65,4.0722,4.0647,65,4.0676,37,29.78,56,25.43,16.62,26,70.66,0
0.55,0.1305,15,0,0,-14.8556,-8.9676,0,329.557,23.515,0.1885,10000,40.86296555,-77.8339378,10.472,12.9141,31.9531,34.8625,0.0356,0.104,-1.0054,-0.1389,-0.2157,-0.5493,0,0,0,34.8,-1000,206.3,204.9,33.6,0,38.7,-1000,-1000,130.8094,0,0,229.6188,0,-0.5938,-0.7469,-0.9531,0.2688,0.2781,0,389.9,0,0,0,0,0,0,0,0,0,0,0,0,0,0,0,0,0,0,0,0,0,0,0,0,0,0,0,0,0,0,0,0,0,105.0309,0,0.7295,0,0,0,0,0,0,0,0,0,0,0,0,0,0,0,0,0,0,0,0,0,0,0,0,0,0,0,0,0,0,0,0,0,0,0,0,0,0,0,0,0,0,0,0,28.1558,31.463,42,-0.6556,-0.6344,4.0722,4.0647,65,4.0676,37,29.78,56,25.43,16.62,26,70.66,0
0.6,0.1421,15,0,0,-15.7688,44.9604,0,329.5546,23.5,0.19,10000,40.8629656,-77.83393773,10.472,12.9234,32,34.8375,0.036,0.1027,-1.0059,-0.1203,-0.214,-0.5488,0,0,0,34.8,-1000,206.3,204.9,33.5942,0,38.6884,-1000,-1000,130.6635,0,0,229.5094,0,-0.3906,-0.4448,-0.5625,0.4823,0.3094,0,390.1187,0,0,0,0,0,0,0,0,0,0,0,0,0,0,0,0,0,0,0,0,0,0,0,0,0,0,0,0,0,0,0,0,0,105.081,0,0.625,0,0,0,0,0,0,0,0,0,0,0,0,0,0,0,0,0,0,0,0,0,0,0,0,0,0,0,0,0,0,0,0,0,0,0,0,0,0,0,0,0,0,0,0,28.3947,31.7672,42,-0.6487,-0.63,4.0722,4.0647,65,4.0676,37,29.78,56,25.43,16.62,26,70.66,0
0.65,0.1597,15,0,0,-17.4262,94.2749,0,329.548,23.5,0.19,10000,40.86296566,-77.83393765,10.472,12.9391,31.9844,34.8688,0.0561,0.101,-1.0044,-0.1158,-0.2278,-0.544,0,0,0,34.8,-1000,206.3,204.9,33.5462,0,38.5913,-1000,-1000,130.6115,0,0,229.6656,0,-0.2344,-0.0802,0.0625,0.7427,0.4656,0,390.4312,0,0,0,0,0,0,0,0,0,0,0,0,0,0,0,0,0,0,0,0,0,0,0,0,0,0,0,0,0,0,0,0,0,105.131,0,0.5208,0,0,0,0,0,0,0,0,0,0,0,0,0,0,0,0,0,0,0,0,0,0,0,0,0,0,0,0,0,0,0,0,0,0,0,0,0,0,0,0,0,0,0,0,28.4486,31.9037,42,-0.6331,-0.63,4.0722,4.0647,65,4.0676,37,29.78,56,25.43,16.62,26,70.66,0
0.7,0.169,15,0,0,-20.7593,105.99,0,329.5483,23.465,0.19,10000,40.8629657,-77.83393762,10.4713,12.9109,31.9531,34.8937,0.0376,0.1011,-1.0049,-0.1086,-0.2417,-0.5342,0,0,0,34.8,-1000,206.3,204.9,33.5,0,38.503,-1000,-1000,130.5594,0,0,229.6594,0,-0.2,0.0406,0.1594,0.8,0.2562,0,390.4594,0,0,0,0,0,0,0,0,0,0,0,0,0,0,0,0,0,0,0,0,0,0,0,0,0,0,0,0,0,0,0,0,0,105.181,0,0.2917,0,0,0,0,0,0,0,0,0,0,0,0,0,0,0,0,0,0,0,0,0,0,0,0,0,0,0,0,0,0,0,0,0,0,0,0,0,0,0,0,0,0,0,0,28.5243,31.9774,42,-0.6175,-0.6425,4.0722,4.0647,65,4.0675,37,29.78,56,25.43,16.62,26,70.6598,0.0009
0.75,0.1747,15,0,0,-24.8105,101.5911,0,329.5516,23.415,0.19,10000,40.86296573,-77.83393762,10.468,12.9281,31.9625,34.85,0.0465,0.1013,-1.0049,-0.0947,-0.2358,-0.5681,0,0,0,34.8,-1000,206.3,204.9,33.5,0,38.5525,-1000,-1000,130.5073,0,0,229.6073,0,-0.2,0.0927,0.1073,0.8,-0.0563,0,390.4073,0,0,0,0,0,0,0,0,0,0,0,0,0,0,0,0,0,0,0,0,0,0,0,0,0,0,0,0,0,0,0,0,0,105.231,0,0.0312,0,0,0,0,0,0,0,0,0,0,0,0,0,0,0,0,0,0,0,0,0,0,0,0,0,0,0,0,0,0,0,0,0,0,0,0,0,0,0,0,0,0,0,0,28.6069,32.0313,42,-0.6019,-0.6581,4.0722,4.0647,65,4.0675,37,29.78,56,25.43,16.62,26,70.6583,0.0077
0.8,0.1923,15,0,0,-21.1149,23.7719,0,329.5548,23.4,0.19,10000,40.86296576,-77.83393762,10.4647,12.9078,31.975,34.8187,0.0377,0.101,-1.0049,-0.0847,-0.2511,-0.6002,0,0,0,34.8,-1000,206.3,204.9,33.5,0,38.6058,-1000,-1000,130.4552,0,0,229.6,0,-0.2,0.0552,-0.1688,0.6656,-0.2792,0,390.3552,0,0,0,0,0,0,0,0,0,0,0,0,0,0,0,0,0,0,0,0,0,0,0,0,0,0,0,0,0,0,0,0,0,105.281,0,0.1375,0,0,0,0,0,0,0,0,0,0,0,0,0,0,0,0,0,0,0,0,0,0,0,0,0,0,0,0,0,0,0,0,0,0,0,0,0,0,0,0,0,0,0,0,28.6895,32.1093,42,-0.6,-0.66,4.0721,4.0646,65,4.0675,37,29.78,56,25.43,16.62,26,70.6568,0.0144
0.85,0.2151,15,0,0,-14.0993,-85.5131,0,329.5581,23.4,0.19,10000,40.8629658,-77.83393762,10.464,12.9172,31.9375,34.8438,0.0533,0.1013,-1.0049,-0.1037,-0.2618,-0.587,0,0,0,34.8,-1000,206.3,204.9,33.5,0,38.7515,-1000,-1000,130.4031,0,0,229.6,0,-0.2,0.0031,-0.4812,0.5094,-0.4875,0,390.3031,0,0,0,0,0,0,0,0,0,0,0,0,0,0,0,0,0,0,0,0,0,0,0,0,0,0,0,0,0,0,0,0,0,105.331,0,0.2938,0,0,0,0,0,0,0,0,0,0,0,0,0,0,0,0,0,0,0,0,0,0,0,0,0,0,0,0,0,0,0,0,0,0,0,0,0,0,0,0,0,0,0,0,28.7721,32.1918,42,-0.6,-0.66,4.0721,4.0646,65,4.0675,37,29.78,56,25.43,16.62,26,70.6553,0.0211
0.9,0.1751,15,0,0,-13.853,-129.2057,0,329.5688,23.365,0.1935,10000,40.86296582,-77.83393764,10.464,12.9297,31.9719,34.9188,0.0434,0.1021,-1.0039,-0.0888,-0.2674,-0.5652,0,0,0,34.8,-1000,206.3,204.9,33.5,0,38.8971,-1000,-1000,130.4,0,0,229.5495,0,-0.3516,-0.2022,-0.4495,0.7527,-0.3989,0,390.6538,0,0,0,0,0,0,0,0,0,0,0,0,0,0,0,0,0,0,0,0,0,0,0,0,0,0,0,0,0,0,0,0,0,105.381,0,0.8161,0,0,0,0,0,0,0,0,0,0,0,0,0,0,0,0,0,0,0,0,0,0,0,0,0,0,0,0,0,0,0,0,0,0,0,0,0,0,0,0,0,0,0,0,28.7517,32.1478,42,-0.6152,-0.66,4.0721,4.0646,65,4.0674,37,29.78,56,25.43,16.62,26,70.6538,0.0278
0.95,0.1082,15,0,0,-16.5079,-144.7872,0,329.5828,23.315,0.1985,10000,40.86296583,-77.83393766,10.464,12.9125,31.9531,34.8187,0.0596,0.1022,-1.0039,-0.0522,-0.3008,-0.559,0,0,0,34.8,-1000,206.3,204.9,33.5,0,38.9,-1000,-1000,130.4,0,0,229.5042,0,-0.5208,-0.425,-0.425,0.9792,-0.2667,0,390.9625,0,0,0,0,0,0,0,0,0,0,0,0,0,0,0,0,0,0,0,0,0,0,0,0,0,0,0,0,0,0,0,0,0,105.431,0,1.2479,0,0,0,0,0,0,0,0,0,0,0,0,0,0,0,0,0,0,0,0,0,0,0,0,0,0,0,0,0,0,0,0,0,0,0,0,0,0,0,0,0,0,0,0,28.7213,32.0927,42,-0.63,-0.6581,4.072,4.0645,65,4.0674,37,29.78,56,25.43,16.62,26,70.6523,0.0345
1,0.0882,15,0,0,-19.5352,-102.1732,0,329.5823,23.3,0.193,10000,40.86296586,-77.83393761,10.464,12.9281,31.9438,34.8625,0.0508,0.1017,-1.0039,-0.0536,-0.3575,-0.5238,0,0,0,34.8,-1000,206.3,204.9,33.5,0,38.9,-1000,-1000,130.4,0,0,229.5563,0,-0.7812,-0.7375,-0.7375,0.7188,0.15,0,390.4937,0,0,0,0,0,0,0,0,0,0,0,0,0,0,0,0,0,0,0,0,0,0,0,0,0,0,0,0,0,0,0,0,0,105.481,0,0.7271,0,0,0,0,0,0,0,0,0,0,0,0,0,0,0,0,0,0,0,0,0,0,0,0,0,0,0,0,0,0,0,0,0,0,0,0,0,0,0,0,0,0,0,0,28.6675,32.0353,42,-0.63,-0.6265,4.072,4.0645,65,4.0674,37,29.78,56,25.43,16.62,26,70.6508,0.0413
1.05,0.0882,15,0,0,-22.7221,-34.6182,0,329.5757,23.3,0.183,10000,40.86296592,-77.83393753,10.464,12.9266,31.975,34.8375,0.0558,0.1015,-1.0039,-0.0622,-0.3399,-0.5822,0,0,0,34.7525,-1000,206.3,204.9,33.5,0,38.7545,-1000,-1000,129.8065,0,0,229.643,0,-0.9312,-0.7505,-1,0.4742,0.457,0.0172,390.3667,0,0,0,0,0,0,0,0,0,0,0,0,0,0,0,0,0,0,0,0,0,0,0,0,0,0,0,0,0,0,0,0,0,105.531,0,0.3194,0,0,0,0,0,0,0,0,0,0,0,0,0,0,0,0,0,0,0,0,0,0,0,0,0,0,0,0,0,0,0,0,0,0,0,0,0,0,0,0,0,0,0,0,28.6099,31.9442,42,-0.5874,-0.5677,4.072,4.0645,65,4.0673,37,29.78,56,25.43,16.62,26,70.6493,0.048
1.1,0.1252,15,0,0,-17.9361,19.9531,0,329.5815,23.265,0.1835,10000,40.86296595,-77.83393747,10.464,12.9422,31.9875,34.8375,0.0587,0.1017,-1.0039,-0.0922,-0.297,-0.6041,0,0,0,34.702,-1000,206.3,204.9,33.5,0,38.603,-1000,-1000,126.0968,0,0,229.9118,0,-0.5011,0.8086,-1,0.3129,0.1882,0.1247,392.0334,0,0,0,0,0,0,0,0,0,0,0,0,0,0,0,0,0,0,0,0,0,0,0,0,0,0,0,0,0,0,0,0,0,105.581,0,0.4269,0,0,0,0,0,0,0,0,0,0,0,0,0,0,0,0,0,0,0,0,0,0,0,0,0,0,0,0,0,0,0,0,0,0,0,0,0,0,0,0,0,0,0,0,28.5246,31.6069,42,-0.3215,-0.3655,4.072,4.0645,65,4.0673,37,29.78,56,25.43,16.62,26,70.6478,0.0547
1.15,0.178,15,0,0,-9.7331,68.9599,0,329.5925,23.215,0.1885,10000,40.86296599,-77.83393743,10.464,12.8984,31.975,34.8625,0.042,0.1015,-1.0039,-0.1249,-0.201,-0.592,0,0,0,34.7,-1000,206.3,204.9,33.5,0,38.552,-1000,-1000,122.4062,0,0,230.1,0,-0.2,1.7125,-0.8281,0.2156,-0.0156,0.2156,393.2313,0,0,0,0,0,0,0,0,0,0,0,0,0,0,0,0,0,0,0,0,0,0,0,0,0,0,0,0,0,0,0,0,0,105.631,0,0.4167,0,0,0,0,0,0,0,0,0,0,0,0,0,0,0,0,0,0,0,0,0,0,0,0,0,0,0,0,0,0,0,0,0,0,0,0,0,0,0,0,0,0,0,0,28.4332,31.3363,42,-0.3563,-0.5891,4.0719,4.0644,65,4.0673,37,29.78,56,25.43,16.62,26,70.6463,0.0614
1.2,0.2037,15,0,0,-9.3713,64.9146,0,329.5941,23.2,0.197,10000,40.86296605,-77.83393732,10.464,12.9203,31.9375,34.8375,0.0404,0.1003,-1.0049,-0.0988,-0.132,-0.5951,0,0,0,34.7,-1000,206.3,204.9,33.5,0,38.5029,-1000,-1000,118.7604,0,0,230.1,0,-0.2,1.0875,-0.2552,0.2677,-0.0677,0.2677,393.3354,0,0,0,0,0,0,0,0,0,0,0,0,0,0,0,0,0,0,0,0,0,0,0,0,0,0,0,0,0,0,0,0,0,105.681,0,0.1562,0,0,0,0,0,0,0,0,0,0,0,0,0,0,0,0,0,0,0,0,0,0,0,0,0,0,0,0,0,0,0,0,0,0,0,0,0,0,0,0,0,0,0,0,28.3241,31.2554,42,-1.1643,-1.9073,4.0719,4.0644,65,4.0672,37,29.78,56,25.43,16.62,26,70.6449,0.0681
1.25,0.2177,15,0,0,-12.37,38.1327,0,329.5916,23.2,0.207,10000,40.86296613,-77.83393717,10.464,12.925,31.9875,34.8375,0.0242,0.1006,-1.0049,-0.0636,-0.1197,-0.6079,0,0,0,34.6549,-1000,206.3,204.9,33.4549,0,39.099,-1000,-1000,116.1635,0,0,230.0802,0,-0.0417,0.4823,0.1,0.2604,-0.1,0.2802,393.3406,0,0,0,0,0,0,0,0,0,0,0,0,0,0,0,0,0,0,0,0,0,0,0,0,0,0,0,0,0,0,0,0,0,105.731,0,-0.0833,0,0,0,0,0,0,0,0,0,0,0,0,0,0,0,0,0,0,0,0,0,0,0,0,0,0,0,0,0,0,0,0,0,0,0,0,0,0,0,0,0,0,0,0,28.2652,31.2238,42,-1.955,-2.7865,4.0719,4.0644,65,4.0672,37,29.78,56,25.43,16.62,26,70.6434,0.0749
1.3,0.1751,15,0,0,-14.1382,32.3042,0,329.598,23.165,0.2065,10000,40.86296618,-77.83393714,10.464,12.9312,31.9625,34.8375,0.0404,0.1014,-1.0049,-0.0908,-0.1584,-0.6508,0,0,0,34.6059,-1000,206.3,204.9,33.4059,0,39.7363,-1000,-1000,115.2781,0,0,230.0281,0,0.375,-0.0906,0.1,0.1562,-0.1,0.2281,393.1844,0,0,0,0,0,0,0,0,0,0,0,0,0,0,0,0,0,0,0,0,0,0,0,0,0,0,0,0,0,0,0,0,0,105.781,0,-0.2917,0,0,0,0,0,0,0,0,0,0,0,0,0,0,0,0,0,0,0,0,0,0,0,0,0,0,0,0,0,0,0,0,0,0,0,0,0,0,0,0,0,0,0,0,28.3232,31.3072,42,-2.705,-2.6415,4.0718,4.0643,65,4.0672,37,29.78,56,25.43,16.62,26,70.6419,0.0816
1.35,0.1082,15,0,0,-15.3791,35.4558,0,329.6082,23.115,0.2015,10000,40.86296622,-77.83393715,10.464,12.9312,31.9875,34.8125,0.0469,0.1014,-1.0049,-0.1339,-0.1728,-0.6731,0,0,0,34.6431,-1000,206.3,204.9,33.4431,0,39.05,-1000,-1000,114.3208,0,0,230,0,0.5281,-0.1365,0.0521,0.1719,-0.076,0.2479,393.2437,0,0,0,0,0,0,0,0,0,0,0,0,0,0,0,0,0,0,0,0,0,0,0,0,0,0,0,0,0,0,0,0,0,105.831,0,-0.325,0,0,0,0,0,0,0,0,0,0,0,0,0,0,0,0,0,0,0,0,0,0,0,0,0,0,0,0,0,0,0,0,0,0,0,0,0,0,0,0,0,0,0,0,28.2906,31.3338,42,-2.7995,-2.435,4.0718,4.0643,65,4.0672,37,29.78,56,25.43,16.62,26,70.6404,0.0883
1.4,0.0855,15,0,0,-19.2665,-12.6721,0,329.6118,23.1,0.1895,10000,40.86296623,-77.83393712,10.464,12.9031,31.9937,34.8187,0.0588,0.1005,-1.0049,-0.1209,-0.1751,-0.6226,0,0,0,34.6922,-1000,206.3,204.9,33.4922,0,38.2167,-1000,-1000,113.2792,0,0,230,0,0.3719,0.4365,-0.0521,0.3281,-0.024,0.3521,393.5563,0,0,0,0,0,0,0,0,0,0,0,0,0,0,0,0,0,0,0,0,0,0,0,0,0,0,0,0,0,0,0,0,0,105.881,0,-0.1688,0,0,0,0,0,0,0,0,0,0,0,0,0,0,0,0,0,0,0,0,0,0,0,0,0,0,0,0,0,0,0,0,0,0,0,0,0,0,0,0,0,0,0,0,28.1219,31.2751,42,-1.3645,-2.085,4.0718,4.0643,65,4.0671,37,29.78,56,25.43,16.62,26,70.6389,0.095
1.45,0.0817,15,0,0,-24.2881,-82.7769,0,329.6126,23.1,0.1745,10000,40.86296622,-77.83393706,10.464,12.9094,31.9937,34.8375,0.0546,0.1009,-1.0039,-0.087,-0.1778,-0.5578,0,0,0,34.7,-1000,206.3,204.9,33.5824,0,38.1422,-1000,-1000,110.5781,0,0,230,0,-0.0094,0.2219,-0.2688,0.3438,0,0.3438,393.5594,0,0,0,0,0,0,0,0,0,0,0,0,0,0,0,0,0,0,0,0,0,0,0,0,0,0,0,0,0,0,0,0,0,105.9307,0,0.1309,0,0,0,0,0,0,0,0,0,0,0,0,0,0,0,0,0,0,0,0,0,0,0,0,0,0,0,0,0,0,0,0,0,0,0,0,0,0,0,0,0,0,0,0,28.0117,31.2333,42,-0.5968,-2.0863,4.0717,4.0642,65,4.0671,37,29.78,56,25.43,16.62,26,70.6374,0.1017
1.5,0.0805,15,0,0,-24.3379,-63.3806,0,329.6157,23.065,0.1805,10000,40.86296624,-77.833937,10.464,12.8969,31.95,34.8125,0.0563,0.1016,-1.0049,-0.0766,-0.2008,-0.5748,0,0,0,34.7,-1000,206.3,204.9,33.6804,0,38.1912,-1000,-1000,106.4635,0,0,230,0,-0.5823,-0.6635,-0.5813,0.2396,0,0.2396,393.299,0,0,0,0,0,0,0,0,0,0,0,0,0,0,0,0,0,0,0,0,0,0,0,0,0,0,0,0,0,0,0,0,0,105.9802,0,0.5433,0,0,0,0,0,0,0,0,0,0,0,0,0,0,0,0,0,0,0,0,0,0,0,0,0,0,0,0,0,0,0,0,0,0,0,0,0,0,0,0,0,0,0,0,27.9555,31.2071,42,-1.3863,-2.9074,4.0717,4.0642,65,4.0671,37,29.78,56,25.43,16.62,26,70.6359,0.1085
1.55,0.0805,15,0,0,-22.2568,-5.6267,0,329.6198,23.015,0.1955,10000,40.86296627,-77.83393694,10.464,12.9266,31.9906,34.825,0.0434,0.1014,-1.0049,-0.0972,-0.2166,-0.6002,0,0,0,34.7,-1000,206.3,204.9,33.7396,0,38.2402,-1000,-1000,106.3854,0,0,230.0969,0,-0.8646,-0.9031,-0.7969,0.2323,-0.0323,0.2323,393.1031,0,0,0,0,0,0,0,0,0,0,0,0,0,0,0,0,0,0,0,0,0,0,0,0,0,0,0,0,0,0,0,0,0,106.03,0,0.5062,0,0,0,0,0,0,0,0,0,0,0,0,0,0,0,0,0,0,0,0,0,0,0,0,0,0,0,0,0,0,0,0,0,0,0,0,0,0,0,0,0,0,0,0,27.8203,31.0815,42,-1.7529,-2.9434,4.0717,4.0642,65,4.067,37,29.78,56,25.43,16.62,26,70.6344,0.1152
1.6,0.0832,15,0,0,-15.9775,-33.4665,0,329.6259,23,0.2,10000,40.86296628,-77.83393693,10.464,12.9109,31.9531,34.8187,0.0332,0.1013,-1.0049,-0.1271,-0.2201,-0.5967,0,0,0,34.7,-1000,206.3,204.9,33.7891,0,38.2892,-1000,-1000,108.7812,0,0,230.2531,0,-0.9688,-0.7469,-0.9531,0.2844,-0.0844,0.2844,392.9469,0,0,0,0,0,0,0,0,0,0,0,0,0,0,0,0,0,0,0,0,0,0,0,0,0,0,0,0,0,0,0,0,0,106.08,0,0.1937,0,0,0,0,0,0,0,0,0,0,0,0,0,0,0,0,0,0,0,0,0,0,0,0,0,0,0,0,0,0,0,0,0,0,0,0,0,0,0,0,0,0,0,0,27.6479,30.9091,42,-1.4853,-1.802,4.0717,4.0642,65,4.067,37,29.78,56,25.43,16.62,26,70.6329,0.1219
1.65,0.087,15,0,0,-7.8989,-97.9892,0,329.6328,23,0.2,10000,40.86296629,-77.83393695,10.464,12.925,31.95,34.875,0.037,0.1013,-1.0049,-0.0871,-0.2269,-0.5618,0,0,0,34.7,-1000,206.3,204.9,33.7235,0,38.4147,-1000,-1000,109.5729,0,0,230.2635,0,-0.6354,-0.4083,-0.599,0.3365,-0.0635,0.3365,393.1187,0,0,0,0,0,0,0,0,0,0,0,0,0,0,0,0,0,0,0,0,0,0,0,0,0,0,0,0,0,0,0,0,0,106.1304,0,-0.0842,0,0,0,0,0,0,0,0,0,0,0,0,0,0,0,0,0,0,0,0,0,0,0,0,0,0,0,0,0,0,0,0,0,0,0,0,0,0,0,0,0,0,0,0,27.5217,30.8084,42,-1.1405,-1.0099,4.0716,4.0641,65,4.067,37,29.78,56,25.43,16.62,26,70.6314,0.1286
1.7,0.0951,15,0,0,-6.7688,-104.965,0,329.6352,22.965,0.193,10000,40.86296633,-77.8339369,10.464,12.925,31.9656,34.8438,0.0941,0.1006,-1.0049,-0.0431,-0.2319,-0.5488,0,0,0,34.7,-1000,206.3,204.9,33.6255,0,38.5618,-1000,-1000,109.6771,0,0,230.2115,0,-0.1146,0.0083,-0.026,0.3885,-0.0115,0.3885,393.4312,0,0,0,0,0,0,0,0,0,0,0,0,0,0,0,0,0,0,0,0,0,0,0,0,0,0,0,0,0,0,0,0,0,106.1809,0,-0.3474,0,0,0,0,0,0,0,0,0,0,0,0,0,0,0,0,0,0,0,0,0,0,0,0,0,0,0,0,0,0,0,0,0,0,0,0,0,0,0,0,0,0,0,0,27.4049,30.7219,42,-0.6895,-0.7001,4.0716,4.0641,65,4.067,37,29.78,56,25.43,16.62,26,70.6299,0.1353
1.75,0.105,15,0,0,-8.6167,-87.2777,0,329.6356,22.915,0.183,10000,40.86296638,-77.83393683,10.464,12.9141,31.9969,34.8438,0.0288,0.1003,-1.0059,-0.0592,-0.2455,-0.5735,0,0,0,34.7,-1000,206.3,204.9,33.6,0,38.6,-1000,-1000,109.4563,0,0,230.2,0,0.2438,0.7094,0.2219,0.4,-0.0406,0.4406,393.5813,0,0,0,0,0,0,0,0,0,0,0,0,0,0,0,0,0,0,0,0,0,0,0,0,0,0,0,0,0,0,0,0,0,106.231,0,-0.4833,0,0,0,0,0,0,0,0,0,0,0,0,0,0,0,0,0,0,0,0,0,0,0,0,0,0,0,0,0,0,0,0,0,0,0,0,0,0,0,0,0,0,0,0,27.3196,30.6663,42,-0.4808,-0.5508,4.0716,4.0641,65,4.067,37,29.78,56,25.43,16.62,26,70.6284,0.1421
1.8,0.1011,15,0,0,-2.6401,-6.4584,0,329.6437,22.9,0.18,10000,40.86296638,-77.83393679,10.464,12.9094,31.9781,34.8375,0.0502,0.1016,-1.0059,-0.0911,-0.2466,-0.587,0,0,0,34.7,-1000,206.3,204.9,33.6,0,38.6,-1000,-1000,109.1437,0,0,230.2,0,0.5563,1.4906,0.3781,0.4,-0.0927,0.4927,393.6854,0,0,0,0,0,0,0,0,0,0,0,0,0,0,0,0,0,0,0,0,0,0,0,0,0,0,0,0,0,0,0,0,0,106.281,0,-0.5875,0,0,0,0,0,0,0,0,0,0,0,0,0,0,0,0,0,0,0,0,0,0,0,0,0,0,0,0,0,0,0,0,0,0,0,0,0,0,0,0,0,0,0,0,27.2618,30.6286,42,-0.4478,-0.5178,4.0716,4.0641,65,4.067,37,29.78,56,25.43,16.62,26,70.6269,0.1488
1.85,0.0912,15,0,0,6.6897,101.4174,0,329.6552,22.9,0.18,10000,40.86296635,-77.83393675,10.464,12.9281,32.025,34.8,0.0698,0.1021,-1.0039,-0.1265,-0.2365,-0.5921,0,0,0,34.7,-1000,206.3,204.9,33.5667,0,38.4627,-1000,-1000,105.4271,0,0,230.1552,0,0.2417,0.1667,0.2656,0.3552,-0.1,0.4104,393.7,0,0,0,0,0,0,0,0,0,0,0,0,0,0,0,0,0,0,0,0,0,0,0,0,0,0,0,0,0,0,0,0,0,106.331,0,-0.325,0,0,0,0,0,0,0,0,0,0,0,0,0,0,0,0,0,0,0,0,0,0,0,0,0,0,0,0,0,0,0,0,0,0,0,0,0,0,0,0,0,0,0,0,27.348,30.6848,42,-0.6391,-0.9228,4.0716,4.0641,65,4.067,37,29.78,56,25.43,16.62,26,70.6254,0.1555
1.9,0.0972,15,0,0,7.285,63.0691,0,329.6626,22.9,0.18,10000,40.86296639,-77.83393678,10.464,12.9375,31.9969,34.8375,0.0499,0.1016,-1.0049,-0.1024,-0.2216,-0.5704,0,0,0,34.7,-1000,206.3,204.9,33.5176,0,38.2667,-1000,-1000,101.1562,0,0,230.1031,0,-0.175,-1.5,0.1094,0.3031,-0.1,0.3063,393.7,0,0,0,0,0,0,0,0,0,0,0,0,0,0,0,0,0,0,0,0,0,0,0,0,0,0,0,0,0,0,0,0,0,106.381,0,-0.0125,0,0,0,0,0,0,0,0,0,0,0,0,0,0,0,0,0,0,0,0,0,0,0,0,0,0,0,0,0,0,0,0,0,0,0,0,0,0,0,0,0,0,0,0,27.2423,30.5671,42,-1.0936,-1.842,4.0716,4.0641,65,4.067,37,29.78,56,25.43,16.62,26,70.6239,0.1622
1.95,0.11,15,0,0,4.1369,-37.9466,0,329.6684,22.9,0.18,10000,40.86296647,-77.83393684,10.464,12.9344,31.9875,34.8438,0.0497,0.1012,-1.0054,-0.0818,-0.2434,-0.555,0,0,0,34.7,-1000,206.3,204.9,33.5,0,38.3294,-1000,-1000,102.4177,0,0,230.149,0,0.3385,-0.6208,0.1,0.349,-0.1,0.349,393.7,0,0,0,0,0,0,0,0,0,0,0,0,0,0,0,0,0,0,0,0,0,0,0,0,0,0,0,0,0,0,0,0,0,106.431,0,-0.3,0,0,0,0,0,0,0,0,0,0,0,0,0,0,0,0,0,0,0,0,0,0,0,0,0,0,0,0,0,0,0,0,0,0,0,0,0,0,0,0,0,0,0,0,26.729,30.08,42,-0.9861,-1.8153,4.0716,4.0641,65,4.067,37,29.78,56,25.43,16.62,26,70.6225,0.1689
2,0.1357,15,0,0,7.5881,-94.6229,0,329.6776,22.865,0.1905,10000,40.86296647,-77.83393688,10.464,12.9094,31.9844,34.875,0.0411,0.1011,-1.0039,-0.1288,-0.2275,-0.5453,0,0,0,34.7,-1000,206.3,204.9,33.5,0,38.5255,-1000,-1000,104.0208,0,0,230.1979,0,0.8906,0.3948,0.1031,0.3969,-0.101,0.3979,393.7031,0,0,0,0,0,0,0,0,0,0,0,0,0,0,0,0,0,0,0,0,0,0,0,0,0,0,0,0,0,0,0,0,0,106.481,0,-0.5918,0,0,0,0,0,0,0,0,0,0,0,0,0,0,0,0,0,0,0,0,0,0,0,0,0,0,0,0,0,0,0,0,0,0,0,0,0,0,0,0,0,0,0,0,26.3697,29.7343,42,-0.2696,-0.7637,4.0716,4.0641,65,4.067,37,29.78,56,25.43,16.62,26,70.621,0.1757
2.05,0.167,15,0,0,13.8676,-132.2966,0,329.6882,22.815,0.2055,10000,40.86296645,-77.8339369,10.464,12.9031,31.9625,34.8375,0.0408,0.1008,-1.0059,-0.1534,-0.1972,-0.5649,0,0,0,34.7,-1000,206.3,204.9,33.5,0,38.6,-1000,-1000,105.0625,0,0,230.0938,0,0.4219,0.1344,0.2594,0.2406,-0.1531,0.2938,393.8594,0,0,0,0,0,0,0,0,0,0,0,0,0,0,0,0,0,0,0,0,0,0,0,0,0,0,0,0,0,0,0,0,0,106.5305,0,-0.3856,0,0,0,0,0,0,0,0,0,0,0,0,0,0,0,0,0,0,0,0,0,0,0,0,0,0,0,0,0,0,0,0,0,0,0,0,0,0,0,0,0,0,0,0,26.1774,29.542,42,-0.0088,-0.2138,4.0715,4.0641,65,4.067,37,29.78,56,25.43,16.62,26,70.6195,0.1824
2.1,0.1681,15,0,0,12.8573,-65.8917,0,329.6851,22.8,0.203,10000,40.86296645,-77.83393681,10.464,12.9125,31.9875,34.8625,0.062,0.1012,-1.0049,-0.1711,-0.1855,-0.6158,0,0,0,34.7,-1000,206.3,204.9,33.5,0,38.6,-1000,-1000,105.8177,0,0,229.9844,0,-0.0104,-0.1156,0.3844,0.0948,-0.2,0.1948,394,0,0,0,0,0,0,0,0,0,0,0,0,0,0,0,0,0,0,0,0,0,0,0,0,0,0,0,0,0,0,0,0,0,106.5801,0,-0.1895,0,0,0,0,0,0,0,0,0,0,0,0,0,0,0,0,0,0,0,0,0,0,0,0,0,0,0,0,0,0,0,0,0,0,0,0,0,0,0,0,0,0,0,0,25.9696,29.3654,42,-0.1363,-0.0913,4.0715,4.0641,65,4.067,37,29.78,56,25.43,16.62,26,70.618,0.1891
2.15,0.1563,15,0,0,8.7228,45.1182,0,329.676,22.8,0.193,10000,40.86296646,-77.83393667,10.464,12.9094,31.9937,34.8438,0.049,0.1017,-1.0049,-0.1737,-0.1906,-0.6004,0,0,0,34.6726,-1000,206.3,204.9,33.5,0,38.6853,-1000,-1000,103.9948,0,0,229.8281,0,-0.1146,-0.2719,0.2281,0.0427,-0.2,0.1427,394,0,0,0,0,0,0,0,0,0,0,0,0,0,0,0,0,0,0,0,0,0,0,0,0,0,0,0,0,0,0,0,0,0,106.6306,0,-0.0842,0,0,0,0,0,0,0,0,0,0,0,0,0,0,0,0,0,0,0,0,0,0,0,0,0,0,0,0,0,0,0,0,0,0,0,0,0,0,0,0,0,0,0,0,25.7505,29.2002,42,-0.2637,0.0313,4.0715,4.0641,65,4.067,37,29.78,56,25.43,16.62,26,70.6165,0.1958
2.2,0.1275,15,0,0,7.8837,29.2137,0,329.6782,22.765,0.1865,10000,40.86296647,-77.83393664,10.464,12.8859,31.9937,34.8187,0.04,0.1019,-1.0049,-0.1846,-0.1953,-0.5872,0,0,0,34.6235,-1000,206.3,204.9,33.5,0,38.8324,-1000,-1000,102.5375,0,0,229.6719,0,-0.1531,-0.325,0.1,0.0188,-0.1906,0.1188,393.9625,0,0,0,0,0,0,0,0,0,0,0,0,0,0,0,0,0,0,0,0,0,0,0,0,0,0,0,0,0,0,0,0,0,106.681,0,-0.0312,0,0,0,0,0,0,0,0,0,0,0,0,0,0,0,0,0,0,0,0,0,0,0,0,0,0,0,0,0,0,0,0,0,0,0,0,0,0,0,0,0,0,0,0,25.4935,28.964,42,-0.3912,0.1538,4.0715,4.0641,65,4.067,37,29.78,56,25.43,16.62,26,70.615,0.2025
2.25,0.0913,15,0,0,8.457,-41.0827,0,329.6851,22.715,0.1815,10000,40.86296648,-77.83393665,10.464,12.9344,31.9875,34.8438,0.0446,0.1021,-1.0049,-0.1703,-0.1993,-0.5786,0,0,0,34.6,-1000,206.3,204.9,33.5,0,38.9529,-1000,-1000,102.7458,0,0,229.5156,0,0.1073,0.0917,0.1,0.1229,-0.1385,0.2229,393.7542,0,0,0,0,0,0,0,0,0,0,0,0,0,0,0,0,0,0,0,0,0,0,0,0,0,0,0,0,0,0,0,0,0,106.731,0,-0.1875,0,0,0,0,0,0,0,0,0,0,0,0,0,0,0,0,0,0,0,0,0,0,0,0,0,0,0,0,0,0,0,0,0,0,0,0,0,0,0,0,0,0,0,0,25.217,28.691,42,-0.5765,0.0832,4.0715,4.0641,65,4.067,37,29.78,56,25.43,16.62,26,70.6135,0.2093
2.3,0.0922,15,0,0,6.7262,-64.2995,0,329.6849,22.7,0.18,10000,40.86296645,-77.83393665,10.464,12.9187,31.9594,34.8375,0.0502,0.103,-1.0039,-0.1358,-0.2248,-0.5966,0,0,0,34.6,-1000,206.3,204.9,33.5,0,39.051,-1000,-1000,102.6562,0,0,229.4,0,0.2594,0.251,0.1,0.1729,-0.0865,0.2594,393.5458,0,0,0,0,0,0,0,0,0,0,0,0,0,0,0,0,0,0,0,0,0,0,0,0,0,0,0,0,0,0,0,0,0,106.781,0,-0.2708,0,0,0,0,0,0,0,0,0,0,0,0,0,0,0,0,0,0,0,0,0,0,0,0,0,0,0,0,0,0,0,0,0,0,0,0,0,0,0,0,0,0,0,0,24.9453,28.4781,42,-0.8296,-0.2143,4.0715,4.0641,65,4.067,37,29.78,56,25.43,16.62,26,70.612,0.216
2.35,0.1088,15,0,0,4.0079,-67.3394,0,329.6816,22.7,0.18,10000,40.86296642,-77.83393665,10.464,12.9016,31.9969,34.8375,0.0493,0.1031,-1.0039,-0.1198,-0.2142,-0.6226,0,0,0,34.6,-1000,206.3,204.9,33.5,0,38.9039,-1000,-1000,101.7188,0,0,229.4,0,0.1031,-0.3219,0.1,0.0688,-0.0344,0.1031,393.3375,0,0,0,0,0,0,0,0,0,0,0,0,0,0,0,0,0,0,0,0,0,0,0,0,0,0,0,0,0,0,0,0,0,106.831,0,-0.1667,0,0,0,0,0,0,0,0,0,0,0,0,0,0,0,0,0,0,0,0,0,0,0,0,0,0,0,0,0,0,0,0,0,0,0,0,0,0,0,0,0,0,0,0,24.6752,28.2862,42,-1.0828,-0.5118,4.0715,4.0641,65,4.067,37,29.78,56,25.43,16.62,26,70.6105,0.2227
2.4,0.1138,15,0,0,3.733,-77.3022,0,329.6755,22.7,0.18,10000,40.86296645,-77.83393664,10.464,12.8344,31.9969,34.8187,0.0493,0.1017,-1.0049,-0.1222,-0.2482,-0.6349,0,0,0,34.6,-1000,206.3,204.9,33.5,0,38.5118,-1000,-1000,100.7812,0,0,229.5063,0,-0.0885,-0.6469,-0.0417,-0.0177,-0.0354,0.0354,393.2354,0,0,0,0,0,0,0,0,0,0,0,0,0,0,0,0,0,0,0,0,0,0,0,0,0,0,0,0,0,0,0,0,0,106.881,0,0.0125,0,0,0,0,0,0,0,0,0,0,0,0,0,0,0,0,0,0,0,0,0,0,0,0,0,0,0,0,0,0,0,0,0,0,0,0,0,0,0,0,0,0,0,0,24.5232,28.1704,42,-1.3359,-0.8092,4.0715,4.0641,65,4.067,37,29.78,56,25.43,16.62,26,70.609,0.2294
2.45,0.1138,15,0,0,4.5053,-90.2319,0,329.6681,22.7,0.18,10000,40.86296651,-77.83393661,10.464,12.925,31.9875,34.85,0.0509,0.0996,-1.0044,-0.1256,-0.2583,-0.6326,0,0,0,34.6216,-1000,206.3,204.9,33.5216,0,38.3451,-1000,-1000,99.8438,0,0,229.8188,0,-0.349,-0.4906,-0.4583,-0.0698,-0.1396,0.1396,393.3396,0,0,0,0,0,0,0,0,0,0,0,0,0,0,0,0,0,0,0,0,0,0,0,0,0,0,0,0,0,0,0,0,0,106.931,0,0.325,0,0,0,0,0,0,0,0,0,0,0,0,0,0,0,0,0,0,0,0,0,0,0,0,0,0,0,0,0,0,0,0,0,0,0,0,0,0,0,0,0,0,0,0,24.4008,28.0738,42,-1.5891,-1.1067,4.0715,4.0641,65,4.067,37,29.78,56,25.43,16.62,26,70.6075,0.2361
2.5,0.074,15,0,0,3.079,-61.172,0,329.6659,22.665,0.1905,10000,40.86296652,-77.8339366,10.4633,12.9344,31.9562,34.8438,0.0486,0.0986,-1.0039,-0.1323,-0.194,-0.6195,0,0,0,34.6706,-1000,206.3,204.9,33.5706,0,38.4431,-1000,-1000,98.3156,0,0,229.9125,0,-0.3906,-0.3344,-0.525,-0.0781,-0.2,0.1781,393.4656,0,0,0,0,0,0,0,0,0,0,0,0,0,0,0,0,0,0,0,0,0,0,0,0,0,0,0,0,0,0,0,0,0,106.981,0,0.3625,0,0,0,0,0,0,0,0,0,0,0,0,0,0,0,0,0,0,0,0,0,0,0,0,0,0,0,0,0,0,0,0,0,0,0,0,0,0,0,0,0,0,0,0,24.2501,27.9319,42,-1.8423,-1.4042,4.0715,4.0641,65,4.067,37,29.78,56,25.43,16.62,26,70.606,0.2429
2.55,0.0171,15,0,0,0.7105,-14.1166,0,329.6659,22.615,0.2055,10000,40.86296652,-77.8339366,10.46,12.9078,31.95,34.8312,0.0211,0.0995,-1.0039,-0.1448,-0.138,-0.6038,0,0,0,34.7,-1000,206.3,204.9,33.5802,0,38.4382,-1000,-1000,95.9719,0,0,229.7042,0,-0.1302,-0.1781,-0.1083,-0.026,-0.2,0.126,393.6219,0,0,0,0,0,0,0,0,0,0,0,0,0,0,0,0,0,0,0,0,0,0,0,0,0,0,0,0,0,0,0,0,0,107.031,0,0.05,0,0,0,0,0,0,0,0,0,0,0,0,0,0,0,0,0,0,0,0,0,0,0,0,0,0,0,0,0,0,0,0,0,0,0,0,0,0,0,0,0,0,0,0,24.0849,27.7667,42,-2.0954,-1.7016,4.0715,4.0641,65,4.067,37,29.78,56,25.43,16.62,26,70.6045,0.2496
2.6,0.0418,15,0,0,3.4218,43.2654,0,329.6733,24.315,0.196,10000,40.86296659,-77.83393656,10.4567,12.9125,31.9469,34.8063,0.0637,0.1002,-1.0059,-0.1432,-0.1632,-0.5764,0,0,0,34.7,-1000,206.3,204.9,33.5307,0,38.2912,-1000,-1000,96.024,0,0,229.1573,0,-0.2083,-0.1,-0.1865,0.0521,-0.1479,0.126,393.7,0,0,0,0,0,0,0,0,0,0,0,0,0,0,0,0,0,0,0,0,0,0,0,0,0,0,0,0,0,0,0,0,0,107.081,0,0.1437,0,0,0,0,0,0,0,0,0,0,0,0,0,0,0,0,0,0,0,0,0,0,0,0,0,0,0,0,0,0,0,0,0,0,0,0,0,0,0,0,0,0,0,0,23.28,26.904,42,-2.3486,-1.9991,4.0715,4.0641,65,4.067,37,29.78,56,25.43,16.62,26,70.603,0.2563
2.65,0.1015,15,0,0,8.3101,105.0732,0,329.6839,26.765,0.176,10000,40.86296669,-77.8339365,10.456,12.8969,31.9813,34.7812,0.039,0.1017,-1.0054,-0.0992,-0.1951,-0.5698,0,0,0,34.7,-1000,206.3,204.9,33.5,0,38.2186,-1000,-1000,98.4719,0,0,228.2719,0,-0.625,-0.1,-0.7594,0.1562,-0.0437,0.1781,393.7,0,0,0,0,0,0,0,0,0,0,0,0,0,0,0,0,0,0,0,0,0,0,0,0,0,0,0,0,0,0,0,0,0,107.131,0,0.6125,0,0,0,0,0,0,0,0,0,0,0,0,0,0,0,0,0,0,0,0,0,0,0,0,0,0,0,0,0,0,0,0,0,0,0,0,0,0,0,0,0,0,0,0,22.2502,25.7963,42,-2.1441,-2.0331,4.0715,4.0641,65,4.067,37,29.78,56,25.43,16.62,26,70.6016,0.263
2.7,0.134,15,0,0,10.1487,45.5129,0,329.6948,27.43,0.177,10000,40.86296674,-77.83393645,10.456,12.9078,31.9688,34.7812,0.0466,0.1033,-1.0039,-0.0879,-0.223,-0.587,0,0,0,34.7,-1000,206.3,204.9,33.5,0,38.2676,-1000,-1000,98.2313,0,0,227.2958,0,-0.7094,-0.4625,-1.0906,0.1698,-0.0302,0.1698,393.6396,0,0,0,0,0,0,0,0,0,0,0,0,0,0,0,0,0,0,0,0,0,0,0,0,0,0,0,0,0,0,0,0,0,107.181,0,0.7688,0,0,0,0,0,0,0,0,0,0,0,0,0,0,0,0,0,0,0,0,0,0,0,0,0,0,0,0,0,0,0,0,0,0,0,0,0,0,0,0,0,0,0,0,21.2205,24.6885,42,-1.58,-1.86,4.0715,4.0641,65,4.067,37,29.78,56,25.43,16.62,26,70.6001,0.2697
2.75,0.1548,15,0,0,10.6804,-66.0624,0,329.7059,27.33,0.187,10000,40.86296677,-77.83393641,10.456,12.9141,31.9625,34.7562,0.0427,0.1056,-1.0044,-0.1205,-0.2119,-0.6046,0,0,0,34.7,-1000,206.3,204.9,33.5,0,38.3333,-1000,-1000,96.0438,0,0,226.2542,0,-0.5531,-1.0875,-1.2469,0.1177,-0.0823,0.1177,393.5354,0,0,0,0,0,0,0,0,0,0,0,0,0,0,0,0,0,0,0,0,0,0,0,0,0,0,0,0,0,0,0,0,0,107.231,0,0.7167,0,0,0,0,0,0,0,0,0,0,0,0,0,0,0,0,0,0,0,0,0,0,0,0,0,0,0,0,0,0,0,0,0,0,0,0,0,0,0,0,0,0,0,0,20.1908,23.5807,42,-1.0159,-1.6869,4.0715,4.0641,65,4.067,37,29.7805,56,25.43,16.62,26,70.6024,0.271
2.8,0.1853,15,0,0,10.4811,-90.726,0,329.7143,27.23,0.1865,10000,40.86296683,-77.83393636,10.456,12.9047,31.9281,34.7812,0.0451,0.106,-1.0049,-0.1515,-0.2207,-0.6213,0,0,0,34.7,-1000,206.3,204.9,33.5,0,38.4314,-1000,-1000,97.3969,0,0,225.9688,0,-0.3969,-1.1969,-0.8188,0.2031,-0.1,0.2031,393.6031,0,0,0,0,0,0,0,0,0,0,0,0,0,0,0,0,0,0,0,0,0,0,0,0,0,0,0,0,0,0,0,0,0,107.2807,0,0.4546,0,0,0,0,0,0,0,0,0,0,0,0,0,0,0,0,0,0,0,0,0,0,0,0,0,0,0,0,0,0,0,0,0,0,0,0,0,0,0,0,0,0,0,0,19.161,22.473,42,-0.464,-1.2187,4.0715,4.0641,65,4.067,37,29.781,56,25.43,16.62,26,70.6049,0.272
2.85,0.2201,15,0,0,9.9686,-78.1418,0,329.7216,27.13,0.1815,10000,40.86296689,-77.8339363,10.456,12.9469,32.025,34.8125,0.0302,0.1038,-1.0049,-0.1408,-0.2211,-0.5947,0,0,0,34.7,-1000,206.3,204.9,33.5137,0,38.5,-1000,-1000,100.574,0,0,226.0729,0,-0.2406,-1.0406,-0.0896,0.3594,-0.1,0.3594,393.7594,0,0,0,0,0,0,0,0,0,0,0,0,0,0,0,0,0,0,0,0,0,0,0,0,0,0,0,0,0,0,0,0,0,107.3301,0,0.0938,0,0,0,0,0,0,0,0,0,0,0,0,0,0,0,0,0,0,0,0,0,0,0,0,0,0,0,0,0,0,0,0,0,0,0,0,0,0,0,0,0,0,0,0,18.1313,21.3652,42,0.0725,-0.375,4.0715,4.0641,65,4.067,37,29.7815,56,25.43,16.62,26,70.6074,0.273
2.9,0.1916,15,0,0,11.9873,-76.4863,0,329.729,27.065,0.18,10000,40.86296695,-77.83393624,10.456,12.9469,31.975,34.8,0.0393,0.1018,-1.0049,-0.1133,-0.2421,-0.5431,0,0,0,34.7,-1000,206.3,204.9,33.5627,0,38.5,-1000,-1000,100.976,0,0.3854,226.7167,0,-0.3156,-0.7688,-0.0927,0.3229,-0.1,0.3229,393.7615,0,0,0,0,0,0,0,0,0,0,0,0,0,0,0,0,0,0,0,0,0,0,0,0,0,0,0,0,0,0,0,0,0,107.3804,0,0.1558,0,0,0,0,0,0,0,0,0,0,0,0,0,0,0,0,0,0,0,0,0,0,0,0,0,0,0,0,0,0,0,0,0,0,0,0,0,0,0,0,0,0,0,0,17.1016,20.2574,42,0.116,0.0815,4.0715,4.0641,65,4.067,37,29.782,56,25.43,16.62,26,70.6099,0.2739
2.95,0.1361,15,0,0,15.0907,-79.5146,0,329.7363,27.015,0.18,10000,40.86296701,-77.83393618,10.456,12.9406,31.9813,34.8063,0.0562,0.1012,-1.0049,-0.1193,-0.2242,-0.554,0,0,0,34.7118,-1000,206.3,204.9,33.6,0,38.449,-1000,-1000,100.4031,0,0.9062,227.55,0,-0.4719,-0.4563,-0.3531,0.2188,-0.1,0.2188,393.7094,0,0,0,0,0,0,0,0,0,0,0,0,0,0,0,0,0,0,0,0,0,0,0,0,0,0,0,0,0,0,0,0,0,107.4309,0,0.3663,0,0,0,0,0,0,0,0,0,0,0,0,0,0,0,0,0,0,0,0,0,0,0,0,0,0,0,0,0,0,0,0,0,0,0,0,0,0,0,0,0,0,0,0,16.0718,19.1497,42,-0.2954,0.1804,4.0715,4.0641,65,4.067,37,29.7825,56,25.43,16.62,26,70.6124,0.2749
3,0.1154,15,0,0,23.4365,-85.8524,0,329.7468,26.93,0.18,10000,40.86296705,-77.83393609,10.456,12.9156,31.9594,34.7812,0.0492,0.1015,-1.0029,-0.1323,-0.1994,-0.6266,0,0,0,34.7608,-1000,206.3,204.9,33.6,0,38.2529,-1000,-1000,101.3677,0,0.5729,227.8281,0,-0.7135,-0.5281,-0.6562,0.1146,-0.1427,0.1573,393.5719,0,0,0,0,0,0,0,0,0,0,0,0,0,0,0,0,0,0,0,0,0,0,0,0,0,0,0,0,0,0,0,0,0,107.481,0,0.6625,0,0,0,0,0,0,0,0,0,0,0,0,0,0,0,0,0,0,0,0,0,0,0,0,0,0,0,0,0,0,0,0,0,0,0,0,0,0,0,0,0,0,0,0,15.0421,18.0419,42,-1.1381,-0.7113,4.0715,4.0641,65,4.067,37,29.783,56,25.43,16.62,26,70.6149,0.2759
3.05,0.1097,15,0,0,34.0288,-93.6085,0,329.7586,26.83,0.18,10000,40.86296708,-77.83393599,10.456,12.8922,31.95,34.75,0.0532,0.1018,-1.0044,-0.1118,-0.1867,-0.6399,0,0,0,34.8,-1000,206.3,204.9,33.6,0,38.1431,-1000,-1000,102.6698,0,0.0521,227.9844,0,-0.974,-0.6844,-0.9688,0.0104,-0.1948,0.1052,393.4156,0,0,0,0,0,0,0,0,0,0,0,0,0,0,0,0,0,0,0,0,0,0,0,0,0,0,0,0,0,0,0,0,0,107.531,0,0.975,0,0,0,0,0,0,0,0,0,0,0,0,0,0,0,0,0,0,0,0,0,0,0,0,0,0,0,0,0,0,0,0,0,0,0,0,0,0,0,0,0,0,0,0,14.0124,16.9341,42,-2.2683,-2.2633,4.0715,4.0641,65,4.067,37,29.7835,56,25.43,16.62,26,70.6173,0.2769
3.1,0.1173,15,0,0,33.3705,-94.5106,0,329.7679,26.73,0.18,10000,40.86296712,-77.83393588,10.456,12.9094,31.9438,34.7625,0.0625,0.1003,-1.0088,-0.1016,-0.1779,-0.6587,0,0,0,34.8,-1000,206.3,204.9,33.6,0,38.3392,-1000,-1000,100.4563,0,0,228.4219,0,-0.3906,-0.1844,-0.4844,0.1406,-0.1531,0.1938,393.0719,0,0,0,0,0,0,0,0,0,0,0,0,0,0,0,0,0,0,0,0,0,0,0,0,0,0,0,0,0,0,0,0,0,107.581,0,0.3771,0,0,0,0,0,0,0,0,0,0,0,0,0,0,0,0,0,0,0,0,0,0,0,0,0,0,0,0,0,0,0,0,0,0,0,0,0,0,0,0,0,0,0,0,12.9826,15.8264,42,-1.9217,-1.9171,4.0715,4.0641,65,4.067,37,29.784,56,25.43,16.62,26,70.6198,0.2779
3.15,0.1307,15,0,0,27.8905,-92.4753,0,329.776,26.63,0.18,10000,40.86296718,-77.83393576,10.456,12.9234,31.9469,34.775,0.0534,0.1017,-1,-0.115,-0.215,-0.671,0,0,0,34.7922,-1000,206.3,204.9,33.6,0,38.5088,-1000,-1000,97.8521,0,0,228.8906,0,0.2865,0.3885,0.0885,0.2969,-0.101,0.2979,392.7073,0,0,0,0,0,0,0,0,0,0,0,0,0,0,0,0,0,0,0,0,0,0,0,0,0,0,0,0,0,0,0,0,0,107.631,0,-0.3,0,0,0,0,0,0,0,0,0,0,0,0,0,0,0,0,0,0,0,0,0,0,0,0,0,0,0,0,0,0,0,0,0,0,0,0,0,0,0,0,0,0,0,0,10.7272,13.2812,42,-0.88,-0.6775,4.0715,4.0641,65,4.067,37,29.7845,56,25.43,16.62,26,70.6223,0.2789
3.2,0.0876,15,0,0,17.0602,-59.712,0,329.7785,26.565,0.18,10000,40.86296719,-77.83393573,10.456,12.9422,31.9156,34.725,0.0597,0.0998,-1.0059,-0.0825,-0.2311,-0.5813,0,0,0,34.7431,-1000,206.3,204.9,33.6,0,38.5578,-1000,-1000,90.399,0,0,228.6448,0,0.1469,0.2469,0.1,0.1469,-0.151,0.1979,393.1594,0,0,0,0,0,0,0,0,0,0,0,0,0,0,0,0,0,0,0,0,0,0,0,0,0,0,0,0,0,0,0,0,0,107.681,0,-0.3521,0,0,0,0,0,0,0,0,0,0,0,0,0,0,0,0,0,0,0,0,0,0,0,0,0,0,0,0,0,0,0,0,0,0,0,0,0,0,0,0,0,0,0,0,8.4307,10.6849,42,-0.6973,-0.8471,4.0715,4.0641,65,4.067,37,29.785,56,25.43,16.62,26,70.6248,0.2799
3.25,0.0202,15,0,0,3.937,-13.7797,0,329.7785,26.515,0.18,10000,40.86296719,-77.83393573,10.456,12.9406,31.95,34.7125,0.0563,0.0997,-1.0063,-0.0679,-0.2064,-0.6151,0,0,0,34.6941,-1000,206.3,204.9,33.5932,0,38.5931,-1000,-1000,83.6906,0,0,228.3813,0,-0.0063,0.0938,0.0938,0.0063,-0.1969,0.1063,393.5969,0,0,0,0,0,0,0,0,0,0,0,0,0,0,0,0,0,0,0,0,0,0,0,0,0,0,0,0,0,0,0,0,0,107.731,0,-0.3792,0,0,0,0,0,0,0,0,0,0,0,0,0,0,0,0,0,0,0,0,0,0,0,0,0,0,0,0,0,0,0,0,0,0,0,0,0,0,0,0,0,0,0,0,6.6272,8.5175,42,-0.7858,-1.4617,4.0715,4.0641,65,4.067,37,29.7855,56,25.43,16.62,26,70.6273,0.2809
3.3,0,14,0,0,0,0,0,329.7785,26.43,0.1765,10000,40.86296719,-77.83393573,10.456,12.925,31.95,34.7188,0.0484,0.105,-1,-0.1016,-0.1972,-0.6597,0,0,0,34.6451,-1000,206.3,204.9,33.5447,0,38.5441,-1000,-1000,90.201,0,0,228.0688,0,-0.1104,-0.0104,-0.0104,0.1104,-0.1448,0.2104,393.5448,0,0,0,0,0,0,0,0,0,0,0,0,0,0,0,0,0,0,0,0,0,0,0,0,0,0,0,0,0,0,0,0,0,107.781,0,-0.1187,0,0,0,0,0,0,0,0,0,0,0,0,0,0,0,0,0,0,0,0,0,0,0,0,0,0,0,0,0,0,0,0,0,0,0,0,0,0,0,0,0,0,0,0,4.8237,6.3501,42,-1.0476,-1.5865,4.0715,4.0641,65,4.067,37,29.786,56,25.43,16.62,26,70.6298,0.2819
3.35,0,14,0,0,0,0,0,329.7785,26.33,0.1715,10000,40.86296719,-77.83393573,10.4573,12.9219,31.9625,34.6688,0.0387,0.1089,-1.0054,-0.1247,-0.2001,-0.5995,0,0,0,34.6039,-1000,206.3,204.9,33.5039,0,38.4706,-1000,-1000,96.2812,0.0146,0.0729,227.9823,0,-0.1198,0.0021,-0.0198,0.2146,-0.1,0.3146,393.5219,0,0,0,0,0,0,0,0,0,0,0,0,0,0,0,0,0,0,0,0,0,0,0,0,0,0,0,0,0,0,0,0,0,107.831,0,0.0083,0,0,0,0,0,0,0,0,0,0,0,0,0,0,0,0,0,0,0,0,0,0,0,0,0,0,0,0,0,0,0,0,0,0,0,0,0,0,0,0,0,0,0,0,3.8994,5.2046,42,-1.3423,-1.6181,4.0715,4.0641,65,4.067,37,29.7865,56,25.43,16.62,26,70.6323,0.2829
3.4,0.0378,14,0,0,12.3178,-21.7205,0,329.789,28.26,0.17,10000,40.86296724,-77.83393565,10.4607,12.9172,31.9344,34.7188,0.062,0.1086,-1.0078,-0.1109,-0.2063,-0.5944,0,0,0,34.6529,-1000,206.3,204.9,33.5529,0,38.1765,-1000,-1000,99.7188,0.1187,0.5938,229.2844,0,0.4531,0.7313,0.5531,0.3187,-0.1,0.4188,393.6781,0,0,0,0,0,0,0,0,0,0,0,0,0,0,0,0,0,0,0,0,0,0,0,0,0,0,0,0,0,0,0,0,0,107.881,0,-0.5646,0,0,0,0,0,0,0,0,0,0,0,0,0,0,0,0,0,0,0,0,0,0,0,0,0,0,0,0,0,0,0,0,0,0,0,0,0,0,0,0,0,0,0,0,3.1183,4.2254,42,-2.1371,-2.5367,4.0715,4.0641,65,4.067,37,29.787,56,25.43,16.62,26,70.6348,0.2839
3.45,0.0918,14,0,0,29.9147,-52.7497,0,329.8041,31.06,0.17,10000,40.8629673,-77.83393555,10.464,12.9109,31.9281,34.725,0.015,0.0957,-1.0044,-0.0769,-0.2312,-0.5958,0,0,0,34.702,-1000,206.3,204.9,33.6,0,37.9118,-1000,-1000,102.7552,0.1542,0.7708,230.6438,0,0.774,1.1396,0.874,0.3771,-0.1,0.4656,393.8459,0,0,0,0,0,0,0,0,0,0,0,0,0,0,0,0,0,0,0,0,0,0,0,0,0,0,0,0,0,0,0,0,0,107.9309,0,-0.8639,0,0,0,0,0,0,0,0,0,0,0,0,0,0,0,0,0,0,0,0,0,0,0,0,0,0,0,0,0,0,0,0,0,0,0,0,0,0,0,0,0,0,0,0,2.7141,3.6382,42,-2.9639,-3.512,4.0715,4.0641,65,4.067,37,29.7875,56,25.43,16.62,26,70.6373,0.2849
3.5,0.1222,14,0,0,32.358,-39.1861,0,329.8149,31.795,0.177,10000,40.86296735,-77.8339354,10.464,12.9078,31.8875,34.7188,0.0531,0.0891,-1.0029,-0.0695,-0.2312,-0.5623,0,0,0,34.751,-1000,206.3,204.9,33.6,0,38.1078,-1000,-1000,104.3698,-0.0542,-0.2708,232.2063,0,0.201,0.4104,0.301,0.2729,-0.1,0.3094,394.0542,0,0,0,0,0,0,0,0,0,0,0,0,0,0,0,0,0,0,0,0,0,0,0,0,0,0,0,0,0,0,0,0,0,107.9804,0,-0.2969,0,0,0,0,0,0,0,0,0,0,0,0,0,0,0,0,0,0,0,0,0,0,0,0,0,0,0,0,0,0,0,0,0,0,0,0,0,0,0,0,0,0,0,0,2.3177,3.0591,42,-1.4678,-1.7955,4.0715,4.0641,65,4.067,37,29.788,56,25.43,16.62,26,70.6398,0.2859
3.55,0.1424,14,0,0,28.3069,-6.5112,0,329.8239,31.645,0.187,10000,40.8629674,-77.83393522,10.464,12.9516,31.9344,34.7375,0.0367,0.0974,-1.0044,-0.0967,-0.1989,-0.5609,0,0,0,34.8,-1000,206.3,204.9,33.6,0,38.302,-1000,-1000,106.1719,-0.1688,-0.8438,232.6906,0,-0.1219,0.025,0.0719,0.2313,-0.1,0.2313,394.1219,0,0,0,0,0,0,0,0,0,0,0,0,0,0,0,0,0,0,0,0,0,0,0,0,0,0,0,0,0,0,0,0,0,108.03,0,0.1,0,0,0,0,0,0,0,0,0,0,0,0,0,0,0,0,0,0,0,0,0,0,0,0,0,0,0,0,0,0,0,0,0,0,0,0,0,0,0,0,0,0,0,0,1.5479,1.996,42,0.2302,0.155,4.0715,4.0641,65,4.067,37,29.7885,56,25.43,16.62,26,70.6423,0.2869
3.6,0.1499,14,0,0,26.0825,-37.3717,0,329.83,31.495,0.19,10000,40.86296743,-77.83393509,10.464,12.9266,31.9219,34.6937,0.0635,0.1043,-1.0049,-0.1056,-0.2269,-0.5852,0,0,0,34.8,-1000,206.3,204.9,33.6,0,38.4,-1000,-1000,108.4115,-0.0646,-0.3229,230.6594,0,0.1385,0.4417,0.6448,0.3354,-0.1,0.3354,393.8615,0,0,0,0,0,0,0,0,0,0,0,0,0,0,0,0,0,0,0,0,0,0,0,0,0,0,0,0,0,0,0,0,0,108.08,0,0.1,0,0,0,0,0,0,0,0,0,0,0,0,0,0,0,0,0,0,0,0,0,0,0,0,0,0,0,0,0,0,0,0,0,0,0,0,0,0,0,0,0,0,0,0,0.7782,0.9353,42,-0.347,-0.4375,4.0715,4.0641,65,4.067,37,29.789,56,25.43,16.62,26,70.6448,0.2879
3.65,0.1521,14,0,0,24.6409,-95.4618,0,329.8348,31.345,0.19,10000,40.86296745,-77.83393497,10.464,12.9156,31.9375,34.6937,0.0443,0.1078,-1.0039,-0.1107,-0.2149,-0.5798,0,0,0,34.8,-1000,206.3,204.9,33.6,0,38.498,-1000,-1000,107.3458,0,0,229.0438,0,0.3,0.5417,0.7823,0.3208,-0.1198,0.3604,393.7,0,0,0,0,0,0,0,0,0,0,0,0,0,0,0,0,0,0,0,0,0,0,0,0,0,0,0,0,0,0,0,0,0,108.1302,0,0.06,0,0,0,0,0,0,0,0,0,0,0,0,0,0,0,0,0,0,0,0,0,0,0,0,0,0,0,0,0,0,0,0,0,0,0,0,0,0,0,0,0,0,0,0,0.3896,0.4688,42,-1.177,-1.3125,4.0715,4.0641,65,4.067,37,29.7895,56,25.43,16.62,26,70.6473,0.2889
3.7,0.1542,14,0,0,23.7778,-55.3308,0,329.8414,31.195,0.19,10000,40.8629675,-77.8339349,10.464,12.9031,31.9,34.6937,0.0715,0.1088,-1.0059,-0.1086,-0.2035,-0.565,0,0,0,34.8,-1000,206.3,204.9,33.6,0,38.1157,-1000,-1000,100.8875,0,0,228.1063,0,0.3,0.125,0.2094,0.1125,-0.1719,0.2562,393.7,0,0,0,0,0,0,0,0,0,0,0,0,0,0,0,0,0,0,0,0,0,0,0,0,0,0,0,0,0,0,0,0,0,108.1807,0,-0.0453,0,0,0,0,0,0,0,0,0,0,0,0,0,0,0,0,0,0,0,0,0,0,0,0,0,0,0,0,0,0,0,0,0,0,0,0,0,0,0,0,0,0,0,0,0.0009,0.0024,42,-0.7065,-1.0265,4.0715,4.0641,65,4.067,37,29.79,56,25.43,16.62,26,70.6497,0.2899
3.75,0.1563,14,0,0,23.1625,26.8949,0,329.8488,31.045,0.19,10000,40.86296756,-77.83393484,10.464,12.9219,31.8875,34.7125,0.0545,0.107,-1.0049,-0.086,-0.1938,-0.6023,0,0,0,34.8,-1000,206.3,204.9,33.6,0,37.7235,-1000,-1000,98.4302,0.024,0.2396,228.3667,0,0.3,0.0198,0.0198,0.0719,-0.1521,0.224,393.6281,0,0,0,0,0,0,0,0,0,0,0,0,0,0,0,0,0,0,0,0,0,0,0,0,0,0,0,0,0,0,0,0,0,108.2308,0,-0.1742,0,0,0,0,0,0,0,0,0,0,0,0,0,0,0,0,0,0,0,0,0,0,0,0,0,0,0,0,0,0,0,0,0,0,0,0,0,0,0,0,0,0,0,0,-0.0069,-0.0069,42,-0.0915,-0.6115,4.0715,4.0641,65,4.067,37,29.79,56,25.43,16.6205,26,70.6473,0.2896
3.8,0.1329,14,0,0,16.852,55.4446,0,329.8561,30.93,0.19,10000,40.86296763,-77.83393478,10.464,12.9391,31.9,34.6875,0.0441,0.1028,-1.0049,-0.0626,-0.2086,-0.6025,0,0,0,34.8,-1000,206.3,204.9,33.6,0,38.0686,-1000,-1000,100.6698,0.076,0.7604,230.0333,0,0.3,0.2802,0.2802,0.2281,-0.0479,0.276,393.4719,0,0,0,0,0,0,0,0,0,0,0,0,0,0,0,0,0,0,0,0,0,0,0,0,0,0,0,0,0,0,0,0,0,108.2802,0,-0.3289,0,0,0,0,0,0,0,0,0,0,0,0,0,0,0,0,0,0,0,0,0,0,0,0,0,0,0,0,0,0,0,0,0,0,0,0,0,0,0,0,0,0,0,0,-0.0069,-0.0069,42,0.1905,-0.156,4.0715,4.0641,65,4.067,37,29.79,56,25.43,16.621,26,70.6443,0.2891
3.85,0.0985,14,0,0,8.1007,60.9902,0,329.8634,30.83,0.19,10000,40.86296769,-77.83393472,10.464,12.9031,31.9094,34.6625,0.0747,0.0994,-1.0039,-0.055,-0.2305,-0.5653,0,0,0,34.8,-1000,206.3,204.9,33.6,0,38.4608,-1000,-1000,100.1813,0.0719,0.7188,231.4469,0,-0.0094,0.0906,0.0063,0.1594,-0.0281,0.2719,393.4281,0,0,0,0,0,0,0,0,0,0,0,0,0,0,0,0,0,0,0,0,0,0,0,0,0,0,0,0,0,0,0,0,0,108.3303,0,-0.0589,0,0,0,0,0,0,0,0,0,0,0,0,0,0,0,0,0,0,0,0,0,0,0,0,0,0,0,0,0,0,0,0,0,0,0,0,0,0,0,0,0,0,0,0,-0.0069,-0.0069,42,0.4355,0.304,4.0715,4.0641,65,4.067,37,29.79,56,25.43,16.6215,26,70.6413,0.2886
3.9,0.0751,14,0,0,17.3679,88.1133,0,329.8734,30.695,0.1795,10000,40.86296773,-77.83393467,10.464,12.9297,31.9188,34.6875,0.0412,0.0963,-1.0059,-0.069,-0.2269,-0.5808,0,0,0,34.7569,-1000,206.3,204.9,33.6,0,38.5882,-1000,-1000,97.3688,0.0198,0.1979,232.6448,0,-0.5823,-0.4823,-0.7229,-0.101,-0.0802,0.2198,393.4802,0,0,0,0,0,0,0,0,0,0,0,0,0,0,0,0,0,0,0,0,0,0,0,0,0,0,0,0,0,0,0,0,0,108.3808,0,0.5726,0,0,0,0,0,0,0,0,0,0,0,0,0,0,0,0,0,0,0,0,0,0,0,0,0,0,0,0,0,0,0,0,0,0,0,0,0,0,0,0,0,0,0,0,-0.0069,-0.0069,42,0.0702,0.1015,4.0715,4.0641,65,4.067,37,29.79,56,25.43,16.622,26,70.6384,0.2881
3.95,0.0565,14,0,0,34.3572,124.4837,0,329.8844,30.545,0.1645,10000,40.86296776,-77.83393463,10.464,12.9422,31.8969,34.7188,0.0445,0.0977,-1.0044,-0.1204,-0.2176,-0.6096,0,0,0,34.7078,-1000,206.3,204.9,33.6,0,38.6863,-1000,-1000,92.7479,-0.0323,0,232.6156,0,-0.5417,-0.7,-0.7094,-0.0708,-0.1646,0.2323,393.5646,0,0,0,0,0,0,0,0,0,0,0,0,0,0,0,0,0,0,0,0,0,0,0,0,0,0,0,0,0,0,0,0,0,108.431,0,0.5333,0,0,0,0,0,0,0,0,0,0,0,0,0,0,0,0,0,0,0,0,0,0,0,0,0,0,0,0,0,0,0,0,0,0,0,0,0,0,0,0,0,0,0,0,-0.0069,-0.0069,42,-0.363,-0.1747,4.0715,4.0641,65,4.067,37,29.79,56,25.43,16.6224,26,70.6354,0.2876
4,0.0749,14,0,0,28.0275,113.4334,0,329.8929,30.43,0.167,10000,40.86296782,-77.83393458,10.464,12.925,31.8656,34.7375,0.0627,0.1003,-1.0039,-0.1391,-0.2133,-0.6232,0,0,0,34.7412,-1000,206.3,204.9,33.6,0,38.6578,-1000,-1000,87.0188,-0.0844,0,231.8344,0,-0.125,-0.7,-0.2406,0.1375,-0.2688,0.2844,393.6688,0,0,0,0,0,0,0,0,0,0,0,0,0,0,0,0,0,0,0,0,0,0,0,0,0,0,0,0,0,0,0,0,0,108.481,0,0.1167,0,0,0,0,0,0,0,0,0,0,0,0,0,0,0,0,0,0,0,0,0,0,0,0,0,0,0,0,0,0,0,0,0,0,0,0,0,0,0,0,0,0,0,0,-0.0064,-0.0069,42,-0.7961,-0.4509,4.0715,4.0641,65,4.067,37,29.79,56,25.43,16.6229,26,70.6324,0.2871
4.05,0.1091,14,0,0,11.7041,82.0599,0,329.9002,30.33,0.177,10000,40.86296788,-77.83393452,10.464,12.9109,31.8875,34.6937,0.0327,0.103,-1.0049,-0.1015,-0.218,-0.6321,0,0,0,34.7902,-1000,206.3,204.9,33.6,0,38.6088,-1000,-1000,88.0344,-0.0635,0,230.8344,0,-0.1823,-0.7,-0.2094,0.1635,-0.2271,0.2635,393.6271,0,0,0,0,0,0,0,0,0,0,0,0,0,0,0,0,0,0,0,0,0,0,0,0,0,0,0,0,0,0,0,0,0,108.531,0,0.15,0,0,0,0,0,0,0,0,0,0,0,0,0,0,0,0,0,0,0,0,0,0,0,0,0,0,0,0,0,0,0,0,0,0,0,0,0,0,0,0,0,0,0,0,-0.0028,-0.0069,42,-1.1258,-0.8188,4.0715,4.0641,65,4.067,37,29.79,56,25.43,16.6234,26,70.6294,0.2866
4.1,0.1553,14,0,0,4.0587,69.4761,0,329.9026,30.23,0.187,10000,40.86296794,-77.83393445,10.464,12.9125,31.8875,34.6937,0.0459,0.105,-1.0039,-0.043,-0.2237,-0.5924,0,0,0,34.8,-1000,206.3,204.9,33.6,0,38.399,-1000,-1000,91.9406,-0.0115,0,229.7406,0,-0.4427,-0.7,-0.3656,0.1115,-0.1229,0.2115,393.5229,0,0,0,0,0,0,0,0,0,0,0,0,0,0,0,0,0,0,0,0,0,0,0,0,0,0,0,0,0,0,0,0,0,108.581,0,0.3583,0,0,0,0,0,0,0,0,0,0,0,0,0,0,0,0,0,0,0,0,0,0,0,0,0,0,0,0,0,0,0,0,0,0,0,0,0,0,0,0,0,0,0,0,0,-0.0069,42,-1.3342,-1.2945,4.0715,4.0641,65,4.067,37,29.79,56,25.43,16.6239,26,70.6264,0.2861
4.15,0.2065,14,0,0,0.1325,64.9451,0,329.903,30.13,0.197,10000,40.86296799,-77.83393438,10.464,12.9359,31.9062,34.7188,0.0544,0.1057,-1.0049,-0.0621,-0.237,-0.568,0,0,0,34.8,-1000,206.3,204.9,33.6,0,38.1539,-1000,-1000,90.3219,0,0,229.175,0,-0.3781,-0.4562,-0.2781,0.1813,-0.1,0.2406,393.4594,0,0,0,0,0,0,0,0,0,0,0,0,0,0,0,0,0,0,0,0,0,0,0,0,0,0,0,0,0,0,0,0,0,108.631,0,0.275,0,0,0,0,0,0,0,0,0,0,0,0,0,0,0,0,0,0,0,0,0,0,0,0,0,0,0,0,0,0,0,0,0,0,0,0,0,0,0,0,0,0,0,0,0,-0.0069,42,-1.5425,-1.7702,4.0715,4.0641,65,4.067,37,29.79,56,25.43,16.6244,26,70.6234,0.2856
4.2,0.1751,14,0,0,-2.5958,0.2597,0,329.9037,30.03,0.1965,10000,40.86296801,-77.83393432,10.464,12.9344,31.9219,34.7188,0.052,0.1052,-1.0049,-0.0539,-0.2637,-0.5699,0,0,0,34.8,-1000,206.3,204.9,33.5618,0,38.3294,-1000,-1000,87.1448,0,0,228.7583,0,-0.2219,-0.1437,-0.1219,0.2854,-0.1,0.2927,393.4073,0,0,0,0,0,0,0,0,0,0,0,0,0,0,0,0,0,0,0,0,0,0,0,0,0,0,0,0,0,0,0,0,0,108.681,0,0.1187,0,0,0,0,0,0,0,0,0,0,0,0,0,0,0,0,0,0,0,0,0,0,0,0,0,0,0,0,0,0,0,0,0,0,0,0,0,0,0,0,0,0,0,0,0.0409,-0.0069,42,-1.5786,-1.8552,4.0715,4.0641,65,4.067,37,29.79,56,25.43,16.6249,26,70.6204,0.2851
4.25,0.1082,14,0,0,-4.8109,-90.2063,0,329.9045,29.93,0.1915,10000,40.862968,-77.83393426,10.464,12.9219,31.9406,34.6937,0.0503,0.1037,-1.0049,-0.0244,-0.2431,-0.5734,0,0,0,34.8,-1000,206.3,204.9,33.5127,0,38.6235,-1000,-1000,91.4479,0,0,229.2823,0,-0.3344,0.2583,0.2583,0.2552,-0.1,0.3,393.3104,0,0,0,0,0,0,0,0,0,0,0,0,0,0,0,0,0,0,0,0,0,0,0,0,0,0,0,0,0,0,0,0,0,108.731,0,0.0083,0,0,0,0,0,0,0,0,0,0,0,0,0,0,0,0,0,0,0,0,0,0,0,0,0,0,0,0,0,0,0,0,0,0,0,0,0,0,0,0,0,0,0,0,0.1774,-0.0069,42,-1.4901,-1.6573,4.0715,4.0641,65,4.067,37,29.79,56,25.43,16.6254,26,70.6175,0.2846
4.3,0.0951,15,0,0,-5.2351,-25.7685,0,329.9076,29.83,0.19,10000,40.86296802,-77.8339342,10.464,12.8984,31.9062,34.7188,0.0524,0.1027,-1.0049,-0.061,-0.2449,-0.594,0,0,0,34.8,-1000,206.3,204.9,33.5359,0,38.5549,-1000,-1000,96.9688,0,0,229.9594,0,-0.4906,0.675,0.675,0.2031,-0.1,0.3,393.2063,0,0,0,0,0,0,0,0,0,0,0,0,0,0,0,0,0,0,0,0,0,0,0,0,0,0,0,0,0,0,0,0,0,108.781,0,-0.0958,0,0,0,0,0,0,0,0,0,0,0,0,0,0,0,0,0,0,0,0,0,0,0,0,0,0,0,0,0,0,0,0,0,0,0,0,0,0,0,0,0,0,0,0,0.2402,-0.0069,42,-1.3507,-1.5199,4.0715,4.0641,65,4.067,37,29.79,56,25.43,16.6259,26,70.6145,0.2841
4.35,0.105,15,0,0,-4.8918,105.0566,0,329.9116,29.73,0.19,10000,40.86296804,-77.83393414,10.464,12.9312,31.8844,34.6875,0.0573,0.1013,-1.0049,-0.1152,-0.257,-0.6035,0,0,0,34.8,-1000,206.3,204.9,33.5845,0,38.3588,-1000,-1000,101.5104,0.049,0.4896,230.6365,0,0.0385,-0.2792,0.4062,0.249,-0.051,0.3,393.4448,0,0,0,0,0,0,0,0,0,0,0,0,0,0,0,0,0,0,0,0,0,0,0,0,0,0,0,0,0,0,0,0,0,108.831,0,-0.25,0,0,0,0,0,0,0,0,0,0,0,0,0,0,0,0,0,0,0,0,0,0,0,0,0,0,0,0,0,0,0,0,0,0,0,0,0,0,0,0,0,0,0,0,0.1827,-0.0069,42,-1.1851,-1.4136,4.0715,4.0641,65,4.067,37,29.79,56,25.43,16.6264,26,70.6115,0.2836
4.4,0.11,15,0,0,-4.2301,132.9097,0,329.916,29.63,0.1865,10000,40.86296803,-77.8339341,10.464,12.9266,31.9406,34.6875,0.0522,0.0995,-1.0049,-0.1466,-0.2287,-0.6098,0,0,0,34.8,-1000,206.3,204.9,33.5667,0,38.4373,-1000,-1000,105.8844,0.099,0.9896,231.3115,0,0.5917,-1.2823,0.1031,0.3021,-0.001,0.3021,393.6948,0,0,0,0,0,0,0,0,0,0,0,0,0,0,0,0,0,0,0,0,0,0,0,0,0,0,0,0,0,0,0,0,0,108.881,0,-0.3938,0,0,0,0,0,0,0,0,0,0,0,0,0,0,0,0,0,0,0,0,0,0,0,0,0,0,0,0,0,0,0,0,0,0,0,0,0,0,0,0,0,0,0,0,0.1781,-0.0069,42,-1.0194,-1.3074,4.0715,4.0641,65,4.067,37,29.79,56,25.43,16.6269,26,70.6085,0.2831
4.45,0.113,15,0,0,-3.4319,116.632,0,329.9205,29.53,0.1815,10000,40.86296799,-77.83393405,10.464,12.9266,31.9125,34.6937,0.0447,0.098,-1.0039,-0.1411,-0.2365,-0.6095,0,0,0,34.8,-1000,206.3,204.9,33.5176,0,38.6333,-1000,-1000,105.1031,0.0469,0.4688,231.8844,0,0.175,-0.3969,0.2594,0.4062,-0.0531,0.4062,393.4344,0,0,0,0,0,0,0,0,0,0,0,0,0,0,0,0,0,0,0,0,0,0,0,0,0,0,0,0,0,0,0,0,0,108.931,0,-0.2375,0,0,0,0,0,0,0,0,0,0,0,0,0,0,0,0,0,0,0,0,0,0,0,0,0,0,0,0,0,0,0,0,0,0,0,0,0,0,0,0,0,0,0,0,0.2356,-0.0069,42,-0.8538,-1.2011,4.0715,4.0641,65,4.067,37,29.79,56,25.43,16.6274,26,70.6055,0.2826
4.5,0.1049,15,0,0,-3.9915,31.5655,0,329.9218,29.43,0.18,10000,40.86296798,-77.83393404,10.464,12.9172,31.8625,34.7188,0.0514,0.0992,-1.0039,-0.1208,-0.2564,-0.6062,0,0,0,34.8,-1000,206.3,204.9,33.5314,0,38.5706,-1000,-1000,104.4417,0,0,232.3427,0,-0.2573,0.3271,0.3271,0.474,-0.1,0.4792,393.2625,0,0,0,0,0,0,0,0,0,0,0,0,0,0,0,0,0,0,0,0,0,0,0,0,0,0,0,0,0,0,0,0,0,108.981,0,-0.025,0,0,0,0,0,0,0,0,0,0,0,0,0,0,0,0,0,0,0,0,0,0,0,0,0,0,0,0,0,0,0,0,0,0,0,0,0,0,0,0,0,0,0,0,0.3066,-0.0069,42,-0.6882,-1.0949,4.0715,4.0641,65,4.067,37,29.79,56,25.43,16.6279,26,70.6025,0.2821
4.55,0.092,15,0,0,-5.1329,-82.9819,0,329.9218,29.33,0.18,10000,40.86296798,-77.83393404,10.464,12.9187,31.9094,34.7125,0.0427,0.1015,-1.0044,-0.1032,-0.2195,-0.5596,0,0,0,34.8,-1000,206.3,204.9,33.5804,0,38.3745,-1000,-1000,104.8583,0,0,231.7698,0,-0.8302,-0.4021,-0.4021,0.2135,-0.1,0.2708,393.8875,0,0,0,0,0,0,0,0,0,0,0,0,0,0,0,0,0,0,0,0,0,0,0,0,0,0,0,0,0,0,0,0,0,109.031,0,0.6,0,0,0,0,0,0,0,0,0,0,0,0,0,0,0,0,0,0,0,0,0,0,0,0,0,0,0,0,0,0,0,0,0,0,0,0,0,0,0,0,0,0,0,0,0.3892,-0.0069,42,-0.5226,-0.9886,4.0715,4.0641,65,4.067,37,29.79,56,25.43,16.6284,26,70.5995,0.2816
4.6,0.093,15,0,0,-10.728,-29.9177,0,329.9247,29.23,0.1835,10000,40.862968,-77.833934,10.464,12.9203,31.9469,34.7125,0.049,0.1036,-1.0049,-0.0823,-0.2157,-0.5292,0,0,0,34.8,-1000,206.3,204.9,33.6,0,38.3,-1000,-1000,104.3188,0,0,231.3188,0,-1.2531,-0.9438,-1,0.0094,-0.0906,0.1,394.3062,0,0,0,0,0,0,0,0,0,0,0,0,0,0,0,0,0,0,0,0,0,0,0,0,0,0,0,0,0,0,0,0,0,109.081,0,1.0688,0,0,0,0,0,0,0,0,0,0,0,0,0,0,0,0,0,0,0,0,0,0,0,0,0,0,0,0,0,0,0,0,0,0,0,0,0,0,0,0,0,0,0,0,0.385,-0.0069,42,-0.3569,-0.8824,4.0715,4.0641,65,4.067,37,29.79,56,25.43,16.6289,26,70.5966,0.2811
4.65,0.0998,15,0,0,-18.2317,94.9799,0,329.9288,29.13,0.1885,10000,40.86296803,-77.83393394,10.464,12.9125,31.9375,34.7188,0.0507,0.1034,-1.0039,-0.0809,-0.2236,-0.5426,0,0,0,34.8,-1000,206.3,204.9,33.6,0,38.3,-1000,-1000,99.4229,0,0,231.4229,0,-0.9927,-0.6313,-1,0.0615,-0.0385,0.1,393.7854,0,0,0,0,0,0,0,0,0,0,0,0,0,0,0,0,0,0,0,0,0,0,0,0,0,0,0,0,0,0,0,0,0,109.131,0,0.9125,0,0,0,0,0,0,0,0,0,0,0,0,0,0,0,0,0,0,0,0,0,0,0,0,0,0,0,0,0,0,0,0,0,0,0,0,0,0,0,0,0,0,0,0,0.3275,-0.0069,42,-0.1913,-0.7761,4.0715,4.0641,65,4.067,37,29.79,56,25.43,16.6294,26,70.5936,0.2806
4.7,0.1646,15,0,0,-16.773,97.662,0,329.9308,29.03,0.1935,10000,40.86296807,-77.83393383,10.464,12.9094,31.8813,34.7125,0.0443,0.1012,-1.0039,-0.0655,-0.1977,-0.5656,0,0,0,34.7725,-1000,206.3,204.9,33.5716,0,38.3569,-1000,-1000,96.6396,0,0,231.5406,0,-0.6917,-0.2917,-0.8104,0.1,-0.0135,0.1135,393.4135,0,0,0,0,0,0,0,0,0,0,0,0,0,0,0,0,0,0,0,0,0,0,0,0,0,0,0,0,0,0,0,0,0,109.181,0,0.6979,0,0,0,0,0,0,0,0,0,0,0,0,0,0,0,0,0,0,0,0,0,0,0,0,0,0,0,0,0,0,0,0,0,0,0,0,0,0,0,0,0,0,0,0,0.3505,-0.0069,42,-0.0257,-0.6699,4.0715,4.0641,65,4.067,37,29.79,56,25.43,16.6299,26,70.5906,0.2801
4.75,0.2543,15,0,0,-11.4734,47.9661,0,329.932,28.93,0.1985,10000,40.86296812,-77.8339337,10.464,12.9375,31.9156,34.7188,0.0537,0.099,-1.0049,-0.048,-0.2149,-0.5765,0,0,0,34.7235,-1000,206.3,204.9,33.5225,0,38.4549,-1000,-1000,99.8688,0,0,231.6969,0,-0.275,0.125,-0.0812,0.1,-0.0656,0.1656,393.4656,0,0,0,0,0,0,0,0,0,0,0,0,0,0,0,0,0,0,0,0,0,0,0,0,0,0,0,0,0,0,0,0,0,109.231,0,0.3333,0,0,0,0,0,0,0,0,0,0,0,0,0,0,0,0,0,0,0,0,0,0,0,0,0,0,0,0,0,0,0,0,0,0,0,0,0,0,0,0,0,0,0,0,0.4079,-0.0069,42,0.1053,-0.5997,4.0715,4.0641,65,4.067,37,29.79,56,25.43,16.63,26,70.5912,0.2796
4.8,0.2299,15,0,0,-11.3216,74.4371,0,329.9375,28.865,0.1965,10000,40.8629681,-77.83393368,10.464,12.9078,31.9219,34.6875,0.0399,0.0993,-1.0039,-0.0429,-0.2487,-0.5777,0,0,0,34.7255,-1000,206.3,204.9,33.5,0,38.4206,-1000,-1000,102.3719,0,0,231.7115,0,-0.1417,0.3115,0.2583,0.0823,-0.1,0.1823,393.5,0,0,0,0,0,0,0,0,0,0,0,0,0,0,0,0,0,0,0,0,0,0,0,0,0,0,0,0,0,0,0,0,0,109.281,0,0.175,0,0,0,0,0,0,0,0,0,0,0,0,0,0,0,0,0,0,0,0,0,0,0,0,0,0,0,0,0,0,0,0,0,0,0,0,0,0,0,0,0,0,0,0,0.3982,-0.0069,42,-0.3061,-1.0945,4.0715,4.0641,65,4.067,37,29.79,56,25.43,16.63,26,70.5927,0.2791
4.85,0.1567,15,0,0,-13.376,133.5511,0,329.9449,28.815,0.1915,10000,40.86296804,-77.83393371,10.464,12.9156,31.8969,34.7375,0.0472,0.1006,-1.0044,-0.0508,-0.2332,-0.5979,0,0,0,34.7745,-1000,206.3,204.9,33.5,0,38.2735,-1000,-1000,103.4656,0,0,231.451,0,-0.5583,0.051,-0.1583,0.0302,-0.1,0.1302,393.5,0,0,0,0,0,0,0,0,0,0,0,0,0,0,0,0,0,0,0,0,0,0,0,0,0,0,0,0,0,0,0,0,0,109.331,0,0.3833,0,0,0,0,0,0,0,0,0,0,0,0,0,0,0,0,0,0,0,0,0,0,0,0,0,0,0,0,0,0,0,0,0,0,0,0,0,0,0,0,0,0,0,0,0.3694,-0.0069,42,-0.6943,-1.5339,4.0715,4.0641,65,4.067,37,29.79,56,25.43,16.63,26,70.5942,0.2786
4.9,0.133,15,0,0,-18.5894,148.1978,0,329.9497,28.73,0.19,10000,40.862968,-77.83393372,10.464,12.925,31.8844,34.7188,0.0522,0.1025,-1.0049,-0.0641,-0.1906,-0.6014,0,0,0,34.8,-1000,206.3,204.9,33.5,0,38.3225,-1000,-1000,102.8969,0,0,231.0813,0,-0.6687,0.3375,-0.4,0.0219,-0.1219,0.1219,393.5219,0,0,0,0,0,0,0,0,0,0,0,0,0,0,0,0,0,0,0,0,0,0,0,0,0,0,0,0,0,0,0,0,0,109.381,0,0.4313,0,0,0,0,0,0,0,0,0,0,0,0,0,0,0,0,0,0,0,0,0,0,0,0,0,0,0,0,0,0,0,0,0,0,0,0,0,0,0,0,0,0,0,0,0.3654,-0.0069,42,-0.9391,-1.6328,4.0715,4.0641,65,4.067,37,29.79,56,25.43,16.63,26,70.5957,0.2781
4.95,0.1305,15,0,0,-25.1566,143.7871,0,329.9534,28.63,0.19,10000,40.86296798,-77.83393373,10.464,12.8984,31.9156,34.7062,0.0321,0.1022,-1.0049,-0.0762,-0.1787,-0.5823,0,0,0,34.8,-1000,206.3,204.9,33.5,0,38.5676,-1000,-1000,100.0323,0,0,230.5604,0,-0.3563,1.3792,-0.4,0.074,-0.174,0.174,393.574,0,0,0,0,0,0,0,0,0,0,0,0,0,0,0,0,0,0,0,0,0,0,0,0,0,0,0,0,0,0,0,0,0,109.431,0,0.275,0,0,0,0,0,0,0,0,0,0,0,0,0,0,0,0,0,0,0,0,0,0,0,0,0,0,0,0,0,0,0,0,0,0,0,0,0,0,0,0,0,0,0,0,0.3654,-0.0069,42,-1.1185,-1.7031,4.0715,4.0641,65,4.067,37,29.79,56,25.43,16.63,26,70.5972,0.2776
5,0.1262,15,0,0,-26.2571,37.7267,0,329.9588,28.53,0.1865,10000,40.86296797,-77.83393379,10.464,12.8906,31.8844,34.6937,0.0512,0.1018,-1.0049,-0.0685,-0.2428,-0.599,0,0,0,34.8,-1000,206.3,204.9,33.5,0,38.6549,-1000,-1000,100.0844,0,0,229.9875,0,-0.0698,1.6656,-0.3219,0.1781,-0.174,0.2521,393.574,0,0,0,0,0,0,0,0,0,0,0,0,0,0,0,0,0,0,0,0,0,0,0,0,0,0,0,0,0,0,0,0,0,109.481,0,0.1187,0,0,0,0,0,0,0,0,0,0,0,0,0,0,0,0,0,0,0,0,0,0,0,0,0,0,0,0,0,0,0,0,0,0,0,0,0,0,0,0,0,0,0,0,0.3924,-0.0069,42,-1.0665,-1.6719,4.0715,4.0641,65,4.067,37,29.79,56,25.43,16.63,26,70.5987,0.2771
5.05,0.121,15,0,0,-25.0146,-111.8979,0,329.965,28.43,0.1815,10000,40.86296799,-77.83393386,10.464,12.9031,31.925,34.7125,0.0455,0.1042,-1.0049,-0.095,-0.259,-0.5839,0,0,0,34.8,-1000,206.3,204.9,33.5,0,38.5569,-1000,-1000,103.0531,0,0,229.3625,0,0.1906,1.1969,-0.1656,0.3344,-0.1219,0.3563,393.5219,0,0,0,0,0,0,0,0,0,0,0,0,0,0,0,0,0,0,0,0,0,0,0,0,0,0,0,0,0,0,0,0,0,109.531,0,-0.0375,0,0,0,0,0,0,0,0,0,0,0,0,0,0,0,0,0,0,0,0,0,0,0,0,0,0,0,0,0,0,0,0,0,0,0,0,0,0,0,0,0,0,0,0,0.42,-0.0069,42,-0.9206,-1.4109,4.0715,4.0641,65,4.067,37,29.79,56,25.43,16.63,26,70.6002,0.2766
